,type,location_name,region,latitude,longitude,yelp_id,yelp_ave,yelp_reviews,Ratings,Review_Text
4000,Micro,Oakland United Beerworks,CA,37.794557,-122.272007,bP0Yky9-5Xyt_czQL4OE_w,5.0,31,5,"Extremely (and deliciously) satisfied with our last visit. Amid the recent state of events, we only had the option to get beer through the To-Go door; yet..."
4001,Micro,Oakshire Brewing,OR,44.073035,-123.140647,Na,Na,Na,Na,Na
4002,Micro,Oasis Brewery,CO,39.763085,-105.034926,4pwC95vDD83Pbq5V1qfvXA,4.5,49,5,Came here with a PubPass that was accepted graciously during these times. This was our first outing after all the Covid shut downs and the staff seemed very...
4003,Micro,Oasis Texas Brewing Company,TX,30.4044,-97.87256500000001,Z4CPbD4a-cR4JR8CH_c3PQ,4.0,341,4,"Cool spot with even cooler views. I'm not going to inundate this review with views that have been posted ten times over, but simply can confirm this is a..."
4004,Micro,Oasis Texas Brewing Company,TX,30.405687,-97.874059,Z4CPbD4a-cR4JR8CH_c3PQ,4.0,341,4,"Cool spot with even cooler views. I'm not going to inundate this review with views that have been posted ten times over, but simply can confirm this is a..."
4005,Micro,Oblivion Brewing Co,OR,44.088694,-121.29346100000001,brckntsI1MNb9ouTVkxy9Q,3.5,42,4,"Oblivion Brewing is small an friendly brewer tap room.  It's open 2-7PM Fri, Sat an Sun.  They offer pints or samplers that you can drink on premises.  Once..."
4006,,Obscure Oscillation Brewing Company,NY,41.693304,-73.915614,Na,Na,Na,Na,Na
4007,Micro,Occidental Brewing,OR,45.58893,-122.761773,tW9QC43er-ZXd7HBIGhW1g,4.0,96,5,Caught up with a friend I haven't seen for months and I think I found one of my new favorite German bars in the area (watch out Prost!). The brews were...
4008,Micro,Ocean Lab Brewing,PR,18.445063,-66.004625,Z-yA--Qj1Ye_XMx8Vce7Dg,4.5,74,5,"Most impressive: Great Micro Brewed Beers, and an excellent Bratwurst on a house made beer bun      (See picture) and a good calamari salad with giant..."
4009,Micro,Oconee Brewing Company,GA,33.577678999999996,-83.184102,q7AI5pvCuZ4OMigcPBqI7g,4.5,6,5,I really am glad that we stopped here to try some of the local beers. I ordered the habanero beer (to be honest I am not sure what type of beer it was - it...
4010,Micro,Odd Side Ales,MI,43.031332,-86.197089,Na,Na,Na,Na,Na
4011,,Odd Side Ales Production Facility,MI,43.031376,-86.197057,Na,Na,Na,Na,Na
4012,Micro,Odd13 Brewing Inc,CO,39.998395,-105.087877,Na,Na,Na,Na,Na
4013,,Odd13 Production Facility,CO,39.9843,-105.095766,Na,Na,Na,Na,Na
4014,,Odell Brewing Co Denver,CO,39.762175,-104.981007,lHPyFTcvSnyz5c7XKEYf-g,4.5,86,5,I make sure to stop by Odell in Rino whenever I'm in Denver. Such a great spot. Lots of of outdoor seating now (thanks to Covid) but even before a great...
4015,Micro,Odin Brewing Co,WA,47.458633,-122.252071,3dSlu89XgSzt9NkxVddAKw,4.0,209,4,I'm not a Beer Drinker but the princess found this wonderful beer place close to the mall. Odin Brewing Company is a very rustic restaurant bar primarily...
4016,,Off Color Brewing,IL,41.918741,-87.725248,FhvIE54uXdO6M_kJUefrOg,4.0,13,4,Off Color's facility is strictly a bottle shop with just a few offerings. Literally just one cooler full of things for sale. Prices are a buck or two less...
4017,Micro,Off Track Brewing Company,OH,39.118592,-84.522357,QMdo-3QBkEr3evb3PhJOLw,4.5,615,5,Wonderful first stop on our self-guided tour of the Brewery District in Cincy!!  Great industrial space (don't miss the views from the cozy rooftop!!)...
4018,,Off Kilter Brewing,IL,42.489171999999996,-89.061145,Na,Na,Na,Na,Na
4019,Micro,Ohana Brewing Co,CA,34.01552,-118.24105700000001,Na,Na,Na,Na,Na
4020,Micro,Ojai Valley Brewery,CA,34.446131,-119.23806499999999,9Jm4pl3cum2Ul2T8SL3bpw,3.5,534,4,"Eating solo, I decided to do tapas style so I could have room for dessert: gambas, bacon-wrapped dates, and a side of roasted veggies. And yes, it was worth..."
4021,Micro,Ola Brew Co,HI,19.646747,-155.99808000000002,XsPWqgzv1UqnKTCKM290hg,4.5,252,5,Born and raised here on the BI and I was so excited to try this place out during a visit back home. Beer was bomb. My flat bread was bomb. Good seating for...
4022,Micro,Old Bust Head Brewing Co,VA,38.744059,-77.67571600000001,Zz-Mnu54ypO-Z2UTr72grQ,4.5,137,5,"Old Bust Head has outstanding beers and seltzer's. However, I mainly came on here to give them an outstanding review regarding their COVID procedures. Every..."
4023,Micro,Old Forge Brewing Co,PA,40.962793,-76.61684100000001,T0edTnmDWEArhUp7tqXW8w,4.0,179,5,"My husband and I were staying in town to go to Knoebels and decided to come here for dinner. I am so glad we did!!! Our waiter was fantastic, the tables..."
4024,Micro,Old Hangtown Beer Works,CA,38.732231,-120.79354,Na,Na,Na,Na,Na
4025,,Old Skool Brewing,MT,46.368269,-104.272837,K9u_uoQn5y1HmEnlmatqbg,5.0,1,5,"This place is awesome! Supper strong local community! They have good beer, a few food options. They offer FREE WIFI and  POPCORN. What more can you ask for...."
4026,Micro,Old Trade Brewery,VA,38.518694,-77.907622,I4l1lyskQlFBVA_Y_ZQdNQ,4.5,42,5,"This a hidden gem in Culpeper! There are a good amount of beers on tap, great outdoor seating, and some indoor seating as well. They have axe throwing, a..."
4027,Micro,Ole Shed Brewing Company,TN,35.361181,-86.197122,mR_PPqYUr4W6w81r-q3NeA,5.0,1,5,We had seen this brewery and tried their delicious beer at local eateries. We hadn't made it in since the hours are limited to Friday and Saturday starting...
4028,Micro,Oliver Brewing Company,MD,39.314914,-76.553164,yb8lWa6Z6Y1g7SDA-9k_wQ,4.5,12,5,Stopped in to get some of their new release collaboration with Black Flag Brewing. Unfortunately take out only. But the beers were excellent as well as the...
4029,Micro,Ology Brewing Co,FL,30.456525,-84.281211,Na,Na,Na,Na,Na
4030,Micro,Olomana Brewing Co,HI,21.396503,-157.740599,asSgB69R5Ssj9xw0oJp_TQ,4.5,106,5,"Local beers with local ingredients and friendly staff, we're fortunate to have them here in Kailua (with a new location coming to the North Shore, too)...."
4031,Micro,Olvalde Farm & Brewing,MN,44.094565,-91.80982,Na,Na,Na,Na,Na
4032,Micro,Omaha Brewing Company,GA,32.141958,-85.00089100000001,Mp8vWw0Blmm1W2FH3dLE1w,4.5,20,5,"They have some good beer here. It's really country! Take me back to my roots is West TN beer drinking and music playing! Bring the pooch, dogs are always..."
4033,Micro,One Barrel Brewing Company,WI,43.091859,-89.355002,klb1XHe_KKgEcpp02vkdYQ,4.0,123,5,"Super friendly staff and cozy small bar atmosphere. They have a great mix of beers and also have a couple of ciders!

I love their artwork, with the main..."
4034,Micro,One Trick Pony Brewery,IL,41.571135,-87.571825,TJw1bgjZV96OsXA3Z956gA,4.5,54,5,"Finally stopped by here again since my first review.  This week I stopped by on a rainy Wednesday evening and got to meet one of the owners, David.  The..."
4035,Micro,Oracle Brewing Company,MI,43.418015999999994,-83.96342800000001,Na,Na,Na,Na,Na
4036,Micro,Ordnance Brewing,OR,45.848188,-119.684707,2is-n7904UodUODxoSWbaQ,5.0,20,5,Not reopening due to change in permit. Will likely reopen inside the River Lodge and Grill Restaurant in Spring 2021. Told this by the Ordinance delivery...
4037,Micro,Oregon Trail Brewery,OR,44.561257,-123.261073,sLdogiWStz9xk9f8TdUWMA,4.5,12,3,"Let me save you some time and give you a tip to start. Oregon Trail Brewery is inside the Old World Deli, now you don't have to wander around looking for..."
4038,Micro,Orf Brewing,TX,30.212899,-97.73065,uMhi0DNpyCs4oU7gFDllfA,5.0,15,5,"Orf brewing is awesome!  It's not the plush decor of their taproom or the food trailer cuisine.  It's all about the beer!  I got a sampler 4-pack, and also..."
4039,Micro,Origin Beer Lab,VA,37.758334000000005,-77.481665,w7YcILvw4-eYrKfUpJAQjg,4.5,9,5,"Really love this place. Not only do they have 8 amazing beers on tap that cross many different beer types, but the staff are always friendly and it's a nice..."
4040,Micro,Original Pattern Brewing Company,CA,37.796144,-122.27141100000001,bcVr2lFnEKWwUIR0vGdQrw,4.5,100,5,"Good brews + dumplings, what more could you want? My husband had been talking about this place for months, so when we found ourselves in the East Bay, we..."
4041,Micro,Ormond Brewing,FL,29.274469,-81.06093,Oj1ljmHuXw5tKyxlYfLrMQ,4.5,72,5,Such a fun spot with delicious beer and amazing service! The bartender Gilbert was awesome at explaining the different beers
4042,,Orono Brewing Bangor Draught Room,ME,44.802328,-68.76957800000001,Na,Na,Na,Na,Na
4043,,Orono Brewing Brewery & Draught Room,ME,44.873206,-68.676198,Na,Na,Na,Na,Na
4044,Micro,Orpheus Brewing,GA,33.793558000000004,-84.368622,wTk-wJyrmRycELTSvdaURQ,4.0,152,5,"The best brewery in Atlanta, hands down. They're doing a great job during Covid; all service has been moved outside. The tabletop firepits are amazing!..."
4045,Micro,Other Desi Beer Co,CT,41.296714,-72.771555,Na,Na,Na,Na,Na
4046,Micro,Other Half Brewing Company,NY,40.673926,-73.99924399999999,gUu-0hyujy5xRM-JAty9JQ,4.0,370,5,So far all the beers I've had are top notch!  Easy to order online and pick is quick and easy.
4047,Micro,Ouachita Brewery,LA,32.499851,-92.122069,7NH633P-miT-ZbgtOO_SYg,2.5,2,1,"Closed. No notice closure. Go to Flying Tiger instead, half a mile away.

It is frustrating that Yelp makes you write out more when you only have a very..."
4048,Micro,Our Mutual Friend Brewing,CO,39.760585,-104.982504,IDaAaTy4tSbusaTNHJJnIw,4.0,279,5,"Coronavirus can't keep a great brewery down; still my favorite brewery. During COVID, I'd been hesitant to order pickup, assuming there'd be crowds drinking..."
4049,Micro,Ouray Brewery,CO,38.022967,-107.671173,B4CzlFCjsb3vUl1iDMNFcg,3.5,433,5,"This place is awesome. We just visited and had dinner after walking around the town and the food, service, and all around experience was excellent.

The..."
4050,,Out of Bounds Brewing Company,CA,38.799166,-121.22931799999999,0b7iI2zmljtPbJl7usd_DQ,4.0,251,5,Great selection of very tasty beers.  Food truck variety that show up is quite eclectic.  Nice place to hang out. I liked it better when the food truck was...
4051,Micro,Outer Light Brewing Company,CT,41.361008,-72.07509,u-4kPVSBb_nWMHYwQmRA3Q,4.5,50,5,"Luckily I called!! The taproom is open, social distancing is definitely enforced, all staff wear masks. No menus but you use the QR code to order with a..."
4052,Micro,Outer Range Brewing Co,CO,39.589311,-106.09898899999999,ZkHo2gAdmD4U5oNG4smoIQ,4.5,138,5,"Amazing beer, absolutely adorable design and decor and friendly staff! We didn't try the give em the bird food however it smelled soo good. Highly recommend!"
4053,Micro,Outland Farm Brewery,ME,44.783147,-69.38028100000001,Na,Na,Na,Na,Na
4054,Micro,Outlook Farm Brewery,MA,42.286714,-72.760839,2Hxb37Ezwblm7x8czP40Vg,3.5,35,4,Very nice- line to order was long but the food was good- didn't know there was outdoor area with brisket and pulled pork- which I would have seen that...
4055,Micro,Over Town Brewing Company,CA,34.141756,-118.00421999999999,BxsBq6yCnCEzGKFQnrlcsg,4.5,45,5,"This brewery is great! I've had to do pickup lately due to COVID, but the experience is smooth and friendly each time. Their online ordering is a cinch, and..."
4056,Micro,Overshores Brewing Co,CT,41.288736,-72.874111,Na,Na,Na,Na,Na
4057,,Oxbow Blending & Bottling,ME,43.665058,-70.2516,oKiEnzkdUf9i-nZxWrVySA,4.0,100,Na,Na
4058,Micro,Oxbow Brewing Co,ME,44.082823,-69.563686,18dD-jws_sXsHWrWb1_wgw,4.5,31,5,"I was going to go 4 stars because they only have porta-potties, but I'll go 5. (Something about being a farmhouse brewery and the number of water sources..."
4059,Micro,Oyster Bay Brewing,NY,40.873234000000004,-73.531357,eLx4HNuEvS4XS5vl9oDV2A,4.0,139,5,"Couldn't be more thrilled that my 700th review is a local brewery. Drink local, support local. 

Prior to covid, I had purchased a Groupon for a beer..."
4060,Micro,Ozark Beer Company,AR,36.333669,-94.114824,0Goj1kSHHnJ2a88WjlWaJw,4.5,50,5,"Excellent experience!!!   We know quality and hard work when we see it and love to share it with others. 

Come here if you want a well put together..."
4061,Micro,PFriem Cascade Locks Barrelhouse,OR,45.668471999999994,-121.897305,Na,Na,Na,Na,Na
4062,,PT's Brewing Co,NV,36.215955,-115.251281,zmltWmTpoBt5sCU-5Kzj-Q,3.5,128,5,"Great local spot. Good beer, good pub food. I recommend the Angry Burger if you like spicy. They offer progressive Keno (which I hit), and progressive..."
4063,Micro,Pacific Grove Brewing Company,CA,36.586523,-121.851828,Na,Na,Na,Na,Na
4064,Micro,Pacific Islander Beer Company,CA,32.832885,-116.988846,SjAzIx3FoVQm0O7T-y4_-Q,4.5,110,5,Post lockdown treat!  Tap craft beer mmmm. Large outdoor space for proper distancing and a relaxed environment. Thank you
4065,Micro,Pale Fire Brewing Co,VA,38.447076,-78.872219,ETEFJT5gRXY4z_qOPZc4YQ,4.5,79,5,"We only had 4 different beers but they were all delicious! Very nice young woman working, friendly atmosphere"
4066,Micro,Panther Island Brewing Company,TX,32.763706,-97.337964,t2QUckMoYaPVImRS17WkJg,4.0,69,5,Already had a tshirt from Shirts on Tap. They have a big screen for football and (what my boys love) an air hockey table! So my husband and I relaxed while...
4067,Micro,Paradox Beer Co,CO,38.944409,-105.155068,Lw8utfJ8Aw8YTVL_wzZR7Q,4.5,44,5,Wow. What a GORGEOUS outdoor beer garden. I appreciate the efforts that Paradox made so everyone could enjoy themselves and feel safe under the COVID...
4068,Micro,Paradox Brewery,NY,43.944618,-73.73159,6hpOPy7S2HMlyqX70g1WGw,4.5,38,5,"The new brewery- what an experience! Outdoors in a beautiful setting, great food truck or delicious hot pretzels, and beer or wine slushees on tap...."
4069,,Parallel 45 Brewing,OR,44.851402,-123.18642,1MscQDOMqdzxL5YTAXP4_Q,5.0,1,5,A tremendous addition to Independence. Strong variety of beers. The Bruty McFruitface is one of the best beers I've had in years. Great service as well. So...
4070,Micro,Pariah Brewing Company,CA,32.755703000000004,-117.128736,BvwyUoVchpPzShD1XcUd1Q,4.5,75,5,Spoke with Caleb about their sours and he was super friendly and knowledgeable. Ended up going with both their Kiwi and Mystery (Raspberry Citrus). Since...
4071,Micro,Park City Brewery,UT,40.693071,-111.544946,Na,Na,Na,Na,Na
4072,Micro,Parkway Brewing,VA,37.309259000000004,-80.033288,Y5hwnVsD5pQRIAL_UBkupA,4.0,34,5,"Great beer!!! Very friendly place, nice laid back atmosphere. 
Food truck was awesome!! 
Live music!!! 
Lots of families & dog friendly. 
Plenty of indoor..."
4073,Micro,Paw Paw Brewing Company LLC,MI,42.210236,-85.895827,Na,Na,Na,Na,Na
4074,Micro,Pawleys Island Brewing Company,SC,32.851679,-80.004788,77rXX5RwLekPKLdH8f_4zg,4.5,29,5,"Beer was great, friendly staff and dogs allowed inside which is always a plus. Small-ish but great gathering spot for good beer and company!"
4075,Micro,Payette Brewing Co,ID,43.613452,-116.21546699999999,RTfy6koLz76SG0zNzw4CGw,4.0,112,4,"The atmosphere was cool, the beer was good, the place was spacious...I don't see any problems with this place.

Getting there:
This place is down the street..."
4076,Micro,Peabody Heights Brewery,MD,39.324352000000005,-76.610434,alefGtO8qQ5Q1WwzTUPCBA,4.5,53,5,"Great Spot!  Old Orioles Park sat on these grounds which the brewery sits on. 
Amazing selection of well named, 
well crafted beer.
Can't go wrong here!"
4077,Micro,Peace Tree Brewing Company,IA,41.319123,-93.099349,J5xOhIXOTmokk5qElgH1sQ,4.5,20,5,Wonderful selection of beers and snacks! Staff is super friendly and helpful. Great seating inside and outside. Would highly recommend if you are in the area.
4078,Micro,Peacemaker Brewing Company,NY,42.888445000000004,-77.27871800000001,SPDwL-39orrxxbuONIj8FA,4.5,7,5,"Great little brewery with good beer, comfortable venue nice food selection (compliance snacks also) and great friendly staff. Lots of outdoor seating,..."
4079,,Pearl Street Brewery,WI,43.834371000000004,-91.236063,nVCpNtpHZ8qO5lhOlwdDEw,4.0,38,5,"Great beer, cool atmosphere, definitely recommend!  We stopped at a few breweries in the area on our vacation and Pearl St was by far our favorite."
4080,Micro,Pecatonica Beer Company Tap House,IL,42.496315,-89.988363,Na,Na,Na,Na,Na
4081,Micro,Pegasus City Brewery,TX,32.799394,-96.833878,7NfDUt_apHD12OvGt_kQsg,4.5,56,5,Still FABULOUS! Even with Covid. Plan ahead & reserve for indoor. Patio is nice when weather is moderate. Various food trucks. Tonight it is pizza. Looking...
4082,Micro,Pelican Brewing Company Tillamook,OR,45.458234000000004,-123.846378,wjv5rHdvYtSJ5Tz5g_g0_w,3.0,232,5,"What a $hi! Show! Wait in the heat for 45 minutes to put in an order. Leave our food, my sunglasses and hat on table while I take my 3 and 5 year old boys..."
4083,Micro,Penguin City Beer,OH,41.102784,-80.658243,6EK0tHe3EDfkYHwSQweuCw,3.5,2,5,"To the person who wrote the other review, do you not know craft beers are ALL a premium because they're someone else's craft and aren't mass produced like a..."
4084,Micro,Pennsylvania Brewing Co,PA,40.457122,-79.991551,G4odep174CH2O8nYkaDzoQ,4.5,8,5,"Do you believe that we've never been here. I've been to so many small breweries but never been here. We decided to end the decade with a visit.

We tried..."
4085,Micro,Penobscot Bay Brewery,ME,44.633417,-68.848894,Uv2RqpZwnWLJ2VO0fw5LTQ,4.0,9,5,"We stopped at Winterport Winery during our drive to Bar Harbor. It was a little bit of a detour, but we wanted to visit a winery along the way. 

First of..."
4086,Micro,Peoples Brewing Co,IN,40.43764,-86.88656999999999,Yedqc7f59focfGlexN0IZw,4.5,54,5,"Tasty beers, great selection, super friendly staff and a great group of local patrons to hang out with us out of towners.
We got a flight of Boiler Gold,..."
4087,Micro,Perching Bird Brewing Company,CA,37.980708,-122.03367,Na,Na,Na,Na,Na
4088,Micro,Perennial Artisan Ales,MO,38.545688,-90.265373,1skzWN0fxGgZNRE53Y_3gw,4.0,119,5,"A lot of good beer here plus an excellent outdoor space. They have several picnic tables across the lawn, all socially distanced, and many with umbrellas...."
4089,,Perfect World Brewing Co,NY,42.674937,-73.736733,4ToPo-f-SK8vbrDGUjjMeQ,4.0,408,5,"Druthers is always amazing. If I could leave a 5 star review every single time I've gone and will continue to go I would.

This time was the first time I..."
4090,Micro,Persimmon Hollow Brewing,FL,29.027375,-81.303933,kyBn2SzaLLBTaDIEjnXudw,4.5,88,5,"Great brewery. My husband and I each ordered a flight of 4, all different beers, and were impressed when we found al of the beers to be delicious. The staff..."
4091,Micro,Peticolas Brewing Co,TX,32.796917,-96.829454,gcmTBFli13B4ZmIysEOBNg,4.5,171,5,"My favorite Dallas brewery especially Royal Scandal and Velvet Hammer. Taproom has been closed due to COVID, but you can call and order 18 cans per customer..."
4092,Micro,Petoskey Brewing,MI,45.396765,-84.903075,DY7EL9Vv2wORrxGaUbTFGg,4.0,241,5,A favorite place with the best beer and seltzer's. Mint Chocolate Stout is on tap! Kid friendly. Covid free and distancing standards are great. Wonderful...
4093,Micro,Philadelphia Brewing Co,PA,39.982874,-75.12750600000001,PPEjKBvE2lV6JNUVnSHkFA,4.5,147,5,"Good beer, better people. Despite the negativities of COVID their staff as been super accommodating and outgoing. Friendly as they always are readily..."
4094,Micro,Philipsburg Brewing Co,MT,46.332552,-113.294569,dOj3-yOdmjP3HN6HVkYyTA,4.5,45,5,"Unfortunately, I haven't gotten the chance to visit this brewery, but I was on a river trip recently with some very nice people from Phillipsburg, Tom and..."
4095,Micro,Philipsburg Brewing Co,MT,46.331158,-113.286601,dOj3-yOdmjP3HN6HVkYyTA,4.5,45,5,"Unfortunately, I haven't gotten the chance to visit this brewery, but I was on a river trip recently with some very nice people from Phillipsburg, Tom and..."
4096,Taproom,Philipsburg Brewing Co,MT,46.332552,-113.294569,dOj3-yOdmjP3HN6HVkYyTA,4.5,45,5,"Unfortunately, I haven't gotten the chance to visit this brewery, but I was on a river trip recently with some very nice people from Phillipsburg, Tom and..."
4097,Taproom,Philipsburg Brewing Co,MT,46.331158,-113.286601,dOj3-yOdmjP3HN6HVkYyTA,4.5,45,5,"Unfortunately, I haven't gotten the chance to visit this brewery, but I was on a river trip recently with some very nice people from Phillipsburg, Tom and..."
4098,Micro,Pigeon Head Brewery,NV,39.533177,-119.80288999999999,P1UI3genSGQTEWv4p82WNA,4.5,85,5,I have always liked their beer selection but it took the damn pandemic to seal the deal. If you have not seen or used their website then you are in for a...
4099,,Pigeon Hill Brewery Production Facility,MI,43.235857,-86.25659399999999,Na,Na,Na,Na,Na
4100,Micro,Pigeon Hill Brewing Company,MI,43.234072999999995,-86.255824,ihF5EWmkzcN9SVvrkR60QA,4.5,58,5,"I'm not sure what they used to look like, but they have a ton of outdoor seating in order to stay open during COVID times as the main street is blocked off...."
4101,Micro,Pike Brewing Company,WA,47.608164,-122.339896,9OlCkeK4TpBbQ76VPDOdYw,3.5,1419,5,"Ok, we didn't like all the beer we tried.  But a great variety and opportunity to try some different tastes.  The atmosphere is definitely appealing...but I..."
4102,Micro,Pikes Peak Brewing,CO,39.095431,-104.860212,lwDV7X7bnEzfqrMh25FF_A,4.0,211,5,We are extremely cautious during covid and did a cabin social distancing vacation in Colorado. We decided we wanted to try a patio for our first time since...
4103,Micro,Pileated Brewing Co,MI,42.253613,-83.73552099999999,IZJAjzlPqel7HMOWIXyxJQ,5.0,20,5,Such a cool and chill neighborhood bar/brewery. I honestly didn't even know this was here!! Met up with some friends here recently and I really liked this...
4104,Micro,Pine Island Brewing,NY,41.297532000000004,-74.46596,MOBdt7aH4sSK_U_uHC5DlA,4.0,32,5,Yessss pine island!! Loved it. First of all.. the black dirt region is bonkers and amazing to drive through. Love that theres a great view from out back....
4105,,Pinehurst Brewery,NC,35.199401,-79.470063,RE3xklauwmT2HwMJuuqhsg,3.5,87,5,"This place is OUTSTANDING, day whatever of quarantine my wife and I decided to ride from Fayetteville out to Pinhurst.  We saw that it said closed on google..."
4106,Micro,Piney River Brewing Company,MO,37.321331,-92.018286,HdMxqKxBkxx_UNXzJ0ibxw,5.0,17,4,We drove out to the brewery recently while doing a little Missouri day trip. This brewery is out there in the country but very easy to find. There is plenty...
4107,Micro,Pint Nine Brewing Company,NE,41.171923,-96.075912,KU3LZMaTtF4OrMzWLm7o2Q,4.5,30,5,"I'm going with five stars and here is why:
Friendly and helpful staff.
Good variety.
Excellent atmosphere.
Open on holidays.
We were on the craft beer..."
4108,,Pint Size Brewing,WA,47.68286,-122.35496200000001,p24rUH2XP7bpcd_pkMONFQ,4.5,3,5,"#ThankYouThursday

New, small, limited, and great. All the things that often make beer ridiculously hard to get. Thankfully, they don't want to leave you..."
4109,,Pinthouse Pizza North,TX,30.318725,-97.73903299999999,j3CWjH0XtesbbDZFVq3c7Q,4.0,1034,5,"Great beer (B A Jaguar shark ftw.) And great pizza, 0lus they strictly adhere to the covid restrictions. What else could you want!?"
4110,Micro,Pipeworks Brewing Co,IL,41.917904,-87.724744,FhvIE54uXdO6M_kJUefrOg,4.0,13,4,Off Color's facility is strictly a bottle shop with just a few offerings. Literally just one cooler full of things for sale. Prices are a buck or two less...
4111,Micro,Pisgah Brewing Co,NC,35.607960999999996,-82.358501,tORrxuOzPXg6HoPtMsBBqA,4.5,115,5,"Though I'm not a beer drinker, I love this place!  

Pisgah Brewing is my favorite local outdoor venue as it feels like being at a music festival, but I get..."
4112,Micro,Pizza Boy Brewing Co,PA,40.288497,-76.971327,QIkJQElAuugVfRrq2KOcMQ,4.0,100,4,"Great online ordering and pick-up options during the shutdown!
I've not been a huge fan of PBBC in the past due to the whole beer pour format, but they..."
4113,,Platform Beer Co Locoba,OH,39.10887,-84.51189000000001,mO2hOYaRrwRRDjwDaoUMHQ,4.5,35,5,Locoba is such a nice atmosphere. It's bright and clean and every time I've been it was quiet. It's great to relax with a beer or coffee here and not deal...
4114,,Platform Beer Co Production Facility,OH,41.474674,-81.70816500000001,gu7d0cebbuHvFgBYqqMXjg,4.0,190,5,Was very impressed with the Covid setup that they had. The waiter came and brought the drinks as the groups stayed sitting at spread out tables. My only...
4115,Micro,Platform Beer Co Taproom,OH,39.97175,-82.99278000000001,g-wWyP3PHQpgPLDn1oH8xg,4.0,87,5,This place far exceeded my CoVid19 compliance expectations (compared to everywhere else we've been lately) and gained an extra star in my review for it. I...
4116,,Platform Beer Phunkenship,OH,41.463309,-81.70362800000001,Ua2mABHc4iDqLy2YD8kR3w,4.5,14,5,Saw this funky place pop up as an option for breweries. I had no idea that it was Platform owned. Sadly didn't get to drink from the cool glasses or have...
4117,Micro,Platform Cincinnati,OH,39.104765,-84.535786,Na,Na,Na,Na,Na
4118,Micro,Platt Park Brewing Co,CO,39.682598,-104.980733,pNgtNy-spf2gqJSZebOj5w,4.0,142,5,I love this place! Such a great local brewery. I've been here multiple times for a beer and snacks but had to come try one of their frozen drinks that I see...
4119,,Playalinda Brewing Company Brix Project,FL,28.546802000000003,-80.796272,jYp3f4Fy_TTLrPseaPWMiQ,4.0,243,5,Always a favorite spot for my family. Food and beer is some of the best in Brevard. Staff makes you feel like family (Sam sets a great model for...
4120,Micro,Pontoon Brewing Company,GA,33.991896999999994,-84.344488,2uMM0XwsCeGQiM-EuaEW1A,4.0,51,5,"We went at 8:30 pm on a Friday with 4 people. It was packed and difficult to find a table at first.

We got the Honorary Girls Scout S'mores Cookie..."
4121,Micro,Port Brewing Co The Lost Abbey,CA,33.141492,-117.149895,l6UMwsi0NnAX3Tm6ru7aGw,4.0,482,5,"A gem! A true diamond in the rough! I'm typing this on August 8, 2020. We are in the middle of the rolling COVID-19 disaster. All service industry..."
4122,Micro,Port Huron Brewing Co,WI,43.629305,-89.74289,QDzE04XGsKbriVScKVWoQg,4.5,22,5,"A little bit out of town, but it's worth heading to if you're tired of the ""tourist attractions"" and just want to sample a small brewery located in the..."
4123,Micro,Port Jeff Brewing Co,NY,40.945824,-73.069608,mFPvSxA7Pazc7FyvyI9jIw,4.0,113,5,This place has great beer on tap and a cool crowd.  We love bringing our dog down here to hang out and enjoy the atmosphere.
4124,Micro,Port Orleans Brewing Company,LA,29.916967,-90.098277,qg0jcxo-ZlV8G2sNj2C8ig,4.0,125,5,"I love the overall ambiance of this brewery. It's such a clean space. They have outdoor seating right in front of the establishment, but there is an..."
4125,Micro,Port Townsend Brewing Co,WA,48.107375,-122.781031,dcXInEqUXH2F7bvHSyUpqw,4.0,75,5,BEST dog friendly brewery I have been to in the US. I recently moved to WA from MN where we were truly spoiled with dog friendly breweries. Some even had...
4126,Micro,Potosi Brewing Company,WI,42.676643,-90.725575,wyV4ph0L50K2Cb1kbxeigw,4.0,44,4,4.5 stars. Great spot to check out when near the area. The food and service were good. Specifically the Kicker Burger and Ham and Swiss sandwich are...
4127,,Potosi Brewing Production Facility,WI,42.675090000000004,-90.726455,FpJkadCdK5vvggRutbXHEQ,4.0,47,5,I think this is the finest brewpub I've ever been to.   There is a broad selection of beers that cover a wide range of styles.   Of note are the cask...
4128,Micro,Pour Brothers Brewery,TX,30.079103999999997,-94.09806,oXFLFyUgh_WNXkONhfJHqA,5.0,3,5,"Pour Brothers was awesome. We found it by accident and were so glad we did. Staff was helpful, friendly, and knowledgeable - loved talking about beer and..."
4129,Micro,Powder Hollow Brewery,CT,41.983906,-72.519547,8f3uzr6Uog7bIuP_Ff2URg,4.0,68,4,"This brewery was gorgeous. We loved the Raspberry Sour Beer and Lift your Kilt IPA. You're able to order food inside from a pizza ""window"" which is in the..."
4130,Micro,Powderhaus Brewing,ID,43.656664,-116.30247299999999,5gNHc40QzS6tTZc8jIr23g,4.0,44,5,It's a great place to come with buddies and hang out. Love how there is an event area you can rent out. Beer selection is in point! Highly recommend
4131,Micro,Prairie Artisan Ales,OK,35.476323,-97.511724,NyZIlj8MUxvgT_qr3PbwFQ,4.0,65,5,This was my first time here and it did not disappoint. The selection of beer was pretty large and had lots of different types so if you like beer you should...
4132,Micro,Prairie Krafts Brewing Company,IL,42.171927000000004,-87.93154799999999,Na,Na,Na,Na,Na
4133,Micro,Prescott Brewing Co Production Facility,AZ,34.650397,-112.41370900000001,Na,Na,Na,Na,Na
4134,Micro,Pressure Drop Brewing,NY,42.866262,-78.860638,_3lp35ZjMLNje64irvGjVg,4.0,39,5,I've been to the Barrel Factory many times over the past few years since it opened to the public. it is one of my favorite places to go drink with friends...
4135,Micro,Pretoria Fields Collective,GA,31.577984999999998,-84.150085,Na,Na,Na,Na,Na
4136,Micro,Printer's Ale Manufacturing Co,GA,33.612308,-85.103237,yxwjAuKnbgP8RwQUgJtI_g,5.0,15,5,"This place is awesome on a nice day, picnic tables, chairs and a frisbee golf course spread over maybe 4-5 acres of grass.  Also cool brewery name."
4137,,Printer's Row Brewing,IL,41.960117,-87.74587199999999,Na,Na,Na,Na,Na
4138,Micro,Proclamation Ale Company,RI,41.727203,-71.44579399999999,tGtB9pETBsTzKpeDMP__GQ,4.5,94,Na,Na
4139,,Project Craft Brewing,WA,48.00029,-117.23347199999999,Na,Na,Na,Na,Na
4140,Micro,Promised Land Brewing Company,CA,37.006941999999995,-121.569128,oI6b2IsOpgqDuKM2B5-EXw,4.5,28,5,Fantastic brewery in downtown Gilroy. Street parking was easy and free. They allow kids and dogs. Many card and board games are available. I love how they...
4141,,Proof Brewing Co,FL,30.430936,-84.281307,fmqXXnWysY6pSFHh2h3UsQ,4.5,210,5,"Great witbier selections, dog friendly, and a variety of spaces to gather both indoors and outdoors. They also serve ""samplers"" to enable you to create your..."
4142,Micro,Props Brewery and Grill,FL,30.424421000000002,-86.650157,aMPU8Bf6LcqvpjfQzTR0Tg,4.5,17,5,10/10 would recommend doing the Taproom and Brewery Tour! Went with my work and had an awesome time. Very informative and fun!
4143,Micro,Props Craft Brewery Taproom,FL,30.403207000000002,-86.602329,Na,Na,Na,Na,Na
4144,Micro,Prost Brewing,CO,39.761408,-105.006739,9KVjVUPoBp7LIsGa2OXasw,4.0,309,4,"Cool vibes, german beers and local brews make people coming here to hang out. Outdoor and indoor seating is available. On a hot 92 degree weather a cold..."
4145,Micro,Prost Brewing Fort Collins,CO,40.588171,-105.07436799999999,MQ9huEpL-6be2ILZLT2cEg,4.0,33,5,Stopped in for the first time last night and this place is very has charm and character - friendly gentleman serving up pints was very knowledgeable and...
4146,Micro,Protectworth Brewing,NH,43.49668,-72.041441,Na,Na,Na,Na,Na
4147,Micro,Pryes Brewing Company,MN,44.993752,-93.27659799999999,KAJtbn62rJJuyp5vcd3TXg,4.5,79,5,This is slowly becoming one of my favorite breweries/tap rooms in the north loop/Minneapolis area. It took awhile to grow fond of it but in the past year...
4148,Micro,Pub Dog Brewing Company,MD,39.555890999999995,-77.041005,jqJGH1EEuVS5gfeHHoC74Q,4.5,9,5,I love this place. Been here many times for beer at the tasting room. Beer always has great flavor and the staff is always friendly.  Because of recent...
4149,Micro,Public Coast Brewing Co,OR,45.9008,-123.959051,HONwtThuceHLSi-us2AhIA,3.5,306,5,"My friend and I went for a drive up the coast on Thanksgiving and had basically accepted that we were going to have fast food for lunch, then we stumbled..."
4150,Micro,Public House Brewing Co,MO,38.009865999999995,-91.608364,JtbuX2zsU_3ehHl7eBJWWQ,4.5,94,5,"We recently had lunch at the location in St James and had a great experience! The food and beer were wonderful, as usual and always a treat to eat out on..."
4151,Micro,Public House Brewing Company,MO,37.948919000000004,-91.772139,s-4dsatgr0D2ORPqAHiSsQ,4.0,53,5,Fantastic craft beer and atmosphere at their two beautiful locations.  Friendly service and delicious pizza!  Can't rave enough about the curbside service...
4152,Micro,Puesto Mission Valley,CA,32.767101000000004,-117.153926,0PUugR-xiDbUsP6apRb5ww,4.0,195,5,This is how you do outdoor dining during COVID. Tables well sanitized. Tables spaced far apart. Servers wearing masks. Text messages to let you know your...
4153,Micro,Quaff On Brewing,IN,39.223511,-86.253743,Na,Na,Na,Na,Na
4154,Micro,Queen City Brewery LLC,VT,44.459656,-73.215521,Na,Na,Na,Na,Na
4155,Micro,Quenched & Tempered Brewery,OH,41.444388000000004,-83.87611899999999,Na,Na,Na,Na,Na
4156,Micro,Quest Brewing Company,SC,34.846571000000004,-82.345158,dtBV7IvEuMkggWWW57iUwA,4.0,47,5,"While on stay-cation, we decided to try out some local breweries.  Quest popped up while doing a yelp search.   What a great little brewery!  I am so glad..."
4157,Micro,R&D Brewing,NC,35.800183000000004,-78.635897,99potiwlDHYmDato-YJlHg,4.0,1,4,"TBD on the opening of the taproom, I wasn't able to find any additional details on that. R&D has been brewing beer for a while now, I really like their..."
4158,Micro,R Shea Brewing,OH,41.133321,-81.549549,BxJAl-LoiSiIHonoGzVu7Q,4.5,86,5,"This place is HUGE in the inside.  
We love craft beer and had been to their other location but couldn't wait to try here too. 
The beers come in plastic..."
4159,Micro,RAM Restaurant and Brewery Production,WA,47.211366999999996,-122.48467600000001,Na,Na,Na,Na,Na
4160,Micro,RJ Rockers Brewing Co,SC,34.948691,-81.935924,UaajTT1SnXtNBGpsf1Lfmw,4.0,125,5,This was the first brewery we tried on our trip to Spartanburg. We loved it! The brewery part is pretty big with plenty of tables. They have a good...
4161,Micro,RMM Brewery Incubator,NC,35.991609000000004,-78.904847,Na,Na,Na,Na,Na
4162,,Radium City Brewing,IL,41.46898,-88.814475,Na,Na,Na,Na,Na
4163,Micro,Rahr Technical Center LLC,MN,44.79654,-93.538303,Na,Na,Na,Na,Na
4164,Micro,Railhouse Brewery,NC,35.130688,-79.426978,urLSyq4Emgp-TfCYIh5LvQ,4.0,72,5,It was nice to try their oatmeal stout. Nice and heavy not overbearing on the chocolate. I took a taste of their first beer but it was a little bit late....
4165,Micro,Railroad Brewing Company,OH,41.475229,-82.02018199999999,NLUOzjWLD7hwuxtXPq0V-g,4.0,46,5,"Lots of outdoor seating, excellent beers, live music, and a food truck made for a great evening! I found some of my favorite beers during this visit. The..."
4166,Micro,Rainy Daze Brewing,WA,47.739886,-122.65741000000001,oWVtbjopqk4qm8GdG76UTQ,4.5,22,5,Started coming here three years ago when I bought a home in the area.  I wasn't impressed at the time due to beer list and customer service.  At the time it...
4167,Micro,Raleigh Brewing Company,NC,35.792949,-78.686996,XqrsQs-HuZBE0YrXGFI0Hg,4.0,174,5,First time here and the place is gorgeous! The beer is so good and staff is nice! I'll definitely be back next time I'm in town!!
4168,Micro,Ranger Creek Brewery,TX,29.529441,-98.396929,aZeaCs7JozhuvRVtsOmgZw,4.5,262,5,"I celebrated my military retirement here earlier this week, and wish to extend my appreciation to Dennis and the rest of the team and R.C. for their..."
4169,Micro,Rapscallion Ales,MA,42.142039000000004,-72.110601,uEu0LVt8xdrxmaspK0yijw,4.5,43,5,Great place to get a beer! The brisket sandwich is out of this world! It felt super safe in Covid-times.
4170,Micro,Reaver Beach Brewing Co,VA,36.788070000000005,-76.060518,IlTlKRmIS6vEBHDxcHqZVQ,4.0,89,5,"This was my first time at this brewery. Majority of the beers are IPAs, but good ones. I have tried the shtriga and took home some cans of Hoptopus. Both..."
4171,Micro,Rebel Jack Brewing Co,MI,42.389586,-83.95899200000001,Na,Na,Na,Na,Na
4172,Micro,Red Gap Brewing,TX,32.388177,-98.97967,-jpciCEr2izqhgKg0lap4Q,5.0,10,5,Excellent establishment . The best beertenders you could ask for . The best BEER you could ask for . If you're a local like myself you know how amazing this...
4173,Micro,Red Gap Brewing,TX,32.389384,-98.980463,-jpciCEr2izqhgKg0lap4Q,5.0,10,5,Excellent establishment . The best beertenders you could ask for . The best BEER you could ask for . If you're a local like myself you know how amazing this...
4174,Micro,Red Hare Brewing Company,GA,33.924347,-84.49575899999999,-X6YB-qWX-nFqOk8vpoPcQ,4.0,105,5,"Finally got some alone time with the hubby, Decided to put stop here. Outside was very inviting. Lots of different choices of drinks"
4175,Micro,Red Lodge Ales Brewing Co,MT,45.202058,-109.245726,Na,Na,Na,Na,Na
4176,Micro,Red Rock Brewing Co Production,UT,40.779221,-111.903158,Na,Na,Na,Na,Na
4177,Micro,Red Shed Brewery,NY,42.757265999999994,-74.809625,Da3c_siG1rzqPQUhU1OG3g,4.5,6,4,"Excellent service. Great beer and drinks selections. Bartenders knew about all the beers they had on draft, which made it easier for making a selection and..."
4178,Micro,Red Shedman Farm Brewery,MD,39.422897999999996,-77.19250699999999,e8GpLXYGIcuWrGabqIecuw,4.0,49,5,"They don't offer flights during COVID but they have some great beers on draft and in cans. They offer indoor and outdoor seating, have food trucks and are..."
4179,Micro,Reformation Brewery,GA,34.234621999999995,-84.495553,iQ5kBSU39LfzaHhreLLWxw,4.5,14,5,Try Alani if you like tart. This location has a great patio. I tried the 'Octoberfest' variety and it's amazing. You can see the games playing on the big...
4180,Micro,Refuge Brewery Inc,CA,33.504146,-117.15863799999998,Na,Na,Na,Na,Na
4181,,Relic Brewing,CT,41.666433000000005,-72.868199,R5KqzYgIxAWVZKRxL8qJ4Q,4.5,64,5,"I have been there a couple times with my sister, dad and a few friends but decided to put the Relic Brewing Company to the test with a large group with many..."
4182,Micro,Rendezvous Junction Brewing Company,AR,36.296025,-94.049183,Na,Na,Na,Na,Na
4183,Micro,Renegade Brewing Company,CO,39.730753,-104.999305,uxFCD0lG2_YKO6naSrf7SA,4.0,287,5,"The gift that keeps on giving...hubs and I won a ""free beer for a year"" (aka a growler fill each week for a year), so needless to say weve become very..."
4184,Micro,Renegade Brewing Company Production,CO,39.718258,-104.999219,wWJkM-QUdIsgLV-pp_bYDQ,4.0,251,5,"Looking for a metal brewery? Look no further. You're here!

The man and I just moved to Denver and were out exploring the city when we came upon this gem!..."
4185,Micro,Rentsch Brewery,TX,30.667671999999996,-97.656959,RZ9oskVwJCnBRdd-z-Hnsg,4.5,57,5,We came here on  Sunday to try some German beers. They have some really great beers! My favorite was the Hefeweizen. The blonde was really good also and my...
4186,Micro,Resident Brewing Co,CA,32.716496,-117.1606,NWMaQodAusv-QE04XxUKDg,4.5,109,5,"Favorite place when away from home ( NJ) for a great local, hazy, NE style IPA!!!  Very friendly girls, very pretty, very Covid compliant.  Great music,..."
4187,Micro,Resurgence Brewing Company,NY,42.917994,-78.899624,Tp4assuWFXmzRt3bOzLUFg,4.0,221,5,We visited here shortly before everything locked down.  It was late afternoon so the place was empty.  I'm an IPA fan so normally that's the first thing I...
4188,Micro,Reuben's Brews Production Brewery,WA,47.662407,-122.36658999999999,0dsIdScST8bMVoziLDwGbw,4.5,186,5,"Love the beer. It's a great outdoor space especially during COVID-19, but I wish they would move the trash cans."
4189,Micro,Reuben's Brews Small Batch Brewery,WA,47.667372,-122.374122,An0anWpvM2u89OwNnXabEQ,4.5,183,5,"COVID review:

I have been coming to Reuben's Brews for years and have been here on many different occasions. The staff is always super friendly and the..."
4190,Micro,Reuben's Brews The Taproom,WA,47.66551,-122.373065,An0anWpvM2u89OwNnXabEQ,4.5,183,5,"COVID review:

I have been coming to Reuben's Brews for years and have been here on many different occasions. The staff is always super friendly and the..."
4191,Micro,Revival Foodworks and Brewery,RI,41.826099,-71.43254499999999,Na,Na,Na,Na,Na
4192,,Rhinegeist Innovation Brewery,OH,39.141771000000006,-84.54293299999999,Na,Na,Na,Na,Na
4193,Micro,Rhythm Brewing Co,CT,41.324548,-72.966883,Na,Na,Na,Na,Na
4194,Micro,Rickety Cricket Brewing,AZ,35.189565,-114.053858,OZu1O5lcwHQyNUyTfA0vYg,4.0,429,5,We were here in August on our way to Sedona.  What a great hidden gem in Kingman!  Staff was so nice and friendly.  Food was simple - we just got a salad...
4195,,Ridgefield Craft Brewing Co,WA,45.78395,-122.703325,Na,Na,Na,Na,Na
4196,Micro,Right Brain Brewery,MI,44.749544,-85.61954,AvgX_GHM7xqgSMeoLjSXRQ,4.0,250,5,We were in Traverse City for a long weekend and always love checking out new-to-us breweries and this one did not disappoint. So many eclectic beers to...
4197,Micro,Right Proper Brewing Company,DC,38.926755,-76.993071,xZltYGZOrERhDm5PUnSYhQ,4.5,66,5,"The fried chicken sandwich. That's really all you need to know. Ok, maybe the fries, too. Oh, and the Brussels sprouts with chili sauce. And if the shishito..."
4198,Micro,Riley's Brewing Co,CA,36.974592,-120.02240400000001,Na,Na,Na,Na,Na
4199,Micro,Rip Current Brewing,CA,33.14284,-117.192439,pBJDOGDeV8rHaemO_cOIug,4.5,188,5,Great little brewery with a surprising number and styles of beer on tap. Friendly and helpful staff. Very nice setting with pleadant outdoor area. Right off...
4200,Micro,Rippon Brewing Company,WV,39.218631,-77.905273,Na,Na,Na,Na,Na
4201,Micro,Rising Tide Brewing Company,ME,43.66548,-70.257271,J7UQHfMRBKHmYKN9FiXF9g,4.5,188,5,"Fantastic brewery! Great beers and even better vibes. It sits right next to Austin St brewing, which is also worth a visit. You can tell how community..."
4202,Micro,Ritual Brewing Co,CA,34.070944,-117.237224,XuXEtLvY0-ely7VMnLdXMg,4.5,258,5,"Whatever your taste in beer is Ritual Brewing has something for you.  Every time you come in, there is something new and different to try.  The staff is..."
4203,Micro,River Bend Brewing,ID,43.596344,-114.346658,Na,Na,Na,Na,Na
4204,Micro,River City Brewing,WA,47.656002,-117.432052,UYV0QutyBr1doMLk2N-YkA,4.5,35,5,"Small little joint but very inviting and friendly staff. Stopped in for a quick beer, wish I would've had more time to go back. Great selection of beer and..."
4205,Micro,River Dog Brewing Co,SC,32.32023,-80.938141,-0a3OrVM_LgO0NLmpgZdQA,4.5,30,5,"October 5, 2018 Friday - 3 PM for a drink
1 adult and a teenager

Atmosphere - 4 stars
Food - 5 stars
Service - 5 stars

Background - Found this place..."
4206,Micro,River Horse Brewing Company,NJ,40.276540000000004,-74.79656899999999,btFjp4USFjAdCzliAaKDZw,4.0,46,5,We happened to be far out into New Jersey and figured we would try to find a brewery to explore.  I opened my Yelp app to see if we could find something in...
4207,Micro,River North Brewery,CO,39.806554999999996,-104.979101,i-vg_Jyys9H_5-zrT3r7Pw,4.5,28,5,"The location of this place is my ONLY complaint, it's not the most convenient to get to. However, it's well worth the trip. Their beers are exactly what I..."
4208,Micro,River Styx Brewing,MA,42.582039,-71.801466,B4jlIMS49BvT9yKJ2u0IeQ,4.5,37,5,"It's got to be tough during the pandemic for a small, independent brewery like this to stay afloat, but they're trying their very best. I know they recently..."
4209,Micro,RiverBend Brewing Company,OR,44.075313,-121.30531299999998,jmTBCm2LZHsVZQ3aEc_sww,3.5,151,5,Current Covid Update- Unfortunately the pre-existing Wench- mobile Phone Ordering system that gave you the ability to order a 2nd round of drinks or more...
4210,Micro,Riverlands Brewing Company,IL,41.918325,-88.337797,R1di7kgVZtiCdKD2IJ8dTw,4.5,30,5,Been to Riverlands a handful of times since pretty much right after they opened. Been a big fan of their brews and the vibe of their brewery. Even during...
4211,Micro,Rivertown Brewing Co Monroe Barrel House,OH,39.445988,-84.398258,1pfkQs_88VyaprFPp3f0kQ,4.0,268,5,The staff was so welcoming and wearing masks and allowing for social distancing. I used a Groupon and the staff was knowledgeable about my coupon as well....
4212,Micro,Riverwalk Brewing Co,MA,42.801253,-70.880134,sUMPBcHoY6eohJ1DHpTBHQ,4.0,36,5,"During the COVID-19 stay at home advisory, I was so hard pressed to go out to a restaurant/brewery/bar, that the moment the governor introduced phase 2 of..."
4213,Micro,Riverwatch Brewery,GA,33.461708,-81.963712,z34f2a3DRzlOoEQ54XRgkQ,4.5,26,5,"This place is super cute and relaxed. They have lots of outdoor seating with plenty of space, if you're looking for somewhere COVID-friendly. They are also..."
4214,Micro,RoHa Brewing Project,UT,40.736471,-111.890107,Na,Na,Na,Na,Na
4215,Micro,Roadhouse Brewing Co,WY,43.462317999999996,-110.79812,_fS3SbzqMQmWZU8H44LadA,3.5,53,5,"Listen up, everyone; I've been to a lot of breweries. Too many, some might say. I even went to every brewery in Jackson, WY, which isn't much considering..."
4216,Micro,Roak Brewing Co,MI,42.482883,-83.14060699999999,Vxmhj595BSOShAEd_n1JnQ,3.5,218,5,"Great food and amazing beer! This place is such a cool vibe, perfect for Royal Oak!! 
During these times, I know the staff is extra slammed, but they were..."
4217,Micro,Roc Hopper Brewing Company,NE,40.580203000000004,-96.184586,Na,Na,Na,Na,Na
4218,Micro,Rochester Mills Production Brewery,MI,42.689444,-83.245874,D8lviwPgBI7zlthY2b3PTw,4.5,12,5,"Very friendly and nice service.
Social distancing and masks were in place. Nice seating outside.
Great beer and loved the pretzel with homemade mustard."
4219,Micro,Rock Art Brewery,VT,44.558254,-72.608862,IRpObQvLjZOEWaLkm3dBew,4.0,53,5,"Beers were delicious and the atmosphere was even better! Off the beaten path with amazing beers, beautiful art and incredible service! Will be taking home a..."
4220,Micro,Rock Cut Brewing Company,CO,40.37184,-105.52290500000001,BtJ9Hb8T4pe6HWmesXTISQ,4.5,258,5,Pils was very tasty. Great online ordering system to limit contact and of course social distancing inside and outside.
4221,Micro,Rockaway Brewing Company,NY,40.746989,-73.954893,VP4ITyWN639nGSLM9NRdEw,4.5,189,5,This was the first stop on my LIC brewery crawl and what a great way to start. I was a big fan Hawaiian pineapple citrus beer. My friend got a nice stout...
4222,Micro,Rocket Frog Brewing Company,VA,38.99524,-77.42549,pzHE9xfU5gFiBaLPel--_g,4.5,49,5,"If you're a fan of sour beer, Rocket Frog is a great brewery to visit. On this visit, we tried all three of the ""Kai Gose"" beers. Out of the three, our..."
4223,Micro,Rocket Republic Brewing Company,AL,34.672801,-86.774,yS9twLF9mWBcJTgVc0t-DQ,4.5,24,5,"Very nice decorated brewery, super friendly, good beers, clean, friendly, several games, live music, parking lot."
4224,Micro,Rocky Coulee Brewing,WA,47.333252,-118.686899,NQG5gMequIzZ3gFSb6bHbw,4.5,4,5,"Awesome beer.
Awesome people.
Its the cherry on top of going to the Desert 100. Wish it wasn't so far, I'd visit a lot more often."
4225,Micro,Rocky Mountain Brewery,CO,38.841268,-104.716257,qUeChMQKcGSWaGJ-LYURdg,4.0,85,5,"Took a socially distance roadtrip through Colorado, and wanted to experience some local breweries before heading back to Texas. Everything was excellent...."
4226,Micro,Rocky Reef Brewing Company,WI,45.895842,-89.696341,NisjFleDWziFsjG1OeClfA,4.5,24,5,"This is our NUMBER ONE FAVORITE BREWERY. They have so many beers and also bring in other local, guest beers. 

The most popular and MY favorite beer of all..."
4227,Micro,Rogue East Side Pub & Pilot Brewery,OR,45.516014,-122.656373,r2c7wD_WBmm8PJKQQHoz2Q,3.5,576,4,"Great beer and food. Nice that they have tents outside, but that fact is ruined by smokers who continue to stand at tent entrance. Really wish the brewery..."
4228,Micro,Rohrbach's Railroad St Brewery,NY,43.163321,-77.586925,dGwXgX7sKkksq2bw5Bhbsw,4.5,79,5,"Embarrassingly, I had only been here once prior to COVID-19, and now twice during (so far). I was blown away by their cup and char pepperoni pizza! Really..."
4229,Micro,Rolling Oak Brewing Co,MI,44.66222,-84.717792,F31zGM5xNFAL3WfLWV8nyA,4.5,38,5,Best beer in the state the cream ale is made from the donuts from the bakery across the street chocolate peanut butter is awesome  and my favorite it's...
4230,Micro,Rooftop Brewing Co,WA,47.655848,-122.372993,-gRrk6ue7vSpGpfV33vEIA,4.5,108,5,"Wow, what a cool place. Just had a delightful afternoon here. Sat outside on the patio, tables were spaced wide apart, employees were conscious, service was..."
4231,Micro,Roosters B Street Brewery,UT,41.22418,-111.9912,ZAkkgVv2NH6h3CbqJnpVSw,4.0,30,4,"Stopped by Roosters B Street last night,  to relax, have a small bite and just enjoy the evening with my amazing sweetheart. 

First, I really like the feel..."
4232,Micro,Rough Draft Brewing,CA,32.883555,-117.171723,52HgbmlI_2K7JcJeVNvOOg,4.0,208,5,This place is awesome! We are very uncomfortable going to places we hadn't been before Covid. Rough Draft already had a social distancing facility so we...
4233,Micro,Roughhouse Brewing,TX,29.935162,-98.060204,n7BvTBA2b7Lv-hDjg4PrBw,4.5,33,5,"The Good:
  :: local business!
  :: lots of parking
  :: lots of space outdoors. in these pandemic times we live in, this is critical to ensure safety and..."
4234,Micro,Roughhouse Brewing,TX,29.936339,-98.061408,n7BvTBA2b7Lv-hDjg4PrBw,4.5,33,5,"The Good:
  :: local business!
  :: lots of parking
  :: lots of space outdoors. in these pandemic times we live in, this is critical to ensure safety and..."
4235,Micro,Roughtail Brewing,OK,35.480571999999995,-97.407493,Na,Na,Na,Na,Na
4236,Micro,Round Barn Brewery & Public House,MI,41.95316,-86.485353,f81gHtsZJZXX3QWrKMxcuA,4.0,131,5,"These guys just hit it out of the park. Their new menu items the shaved prime rib sandwich and the beer cheese tots are SO good. Their pizzas, as always,..."
4237,Micro,Rowlands Calumet Brewery Co 2,WI,44.028605999999996,-88.16473,Na,Na,Na,Na,Na
4238,Micro,Royal Brewery,LA,30.026884999999996,-90.027715,ZfzTw5exIOalHsGlK99y-w,5.0,16,5,"Very very very Affordable! I really enjoy the vibes ofnthis spot. Think of a Brewery. (I am giving you 3 minutes) . Now, if you thought  big spacious..."
4239,,Royal Docks Brewhouse and Cannery,OH,40.863957,-81.483645,Na,Na,Na,Na,Na
4240,Micro,Royal Docks Brewing Company,OH,40.858243,-81.482838,-JapTroFdKC0NaD3TdAqMQ,4.5,126,5,Love this place. They have great food and good beers. Tonight my wife and I just stopped in for a beer and to get our brew path passport stamped. Been here...
4241,Micro,Rubber Soul Brewing Co,PA,40.262629,-76.708007,Na,Na,Na,Na,Na
4242,Micro,Ruby Mountain Brewing Co,NV,41.013222,-115.00719099999999,Na,Na,Na,Na,Na
4243,Micro,Ruby Valley Brew,MT,45.455913,-112.19690800000001,26oGW5JRW2xIXY03CCmpIw,5.0,9,5,"Four of us took a road trip from Boulder, Montana to see what the fuss was about.

It turns out that it was about great beer and friendly people. Great..."
4244,Micro,Rugged Coast Brewing,CA,38.472302,-122.73359099999999,Na,Na,Na,Na,Na
4245,Micro,Ruhlman Brewery Our Ales,MD,39.63736,-76.908534,0cSUX6LjDjsAhAAHuyhAjA,2.5,7,3,The place is beautiful.  Disk golf course that's awesome.  The beers...well...eh I'm afraid.  Lager and Milk Stout are not Bad.. They use their own hops and...
4246,Micro,Ruhstaller Beer,CA,38.453486,-121.819598,pFsvvtJm6yNfAK-HO4BTOQ,4.5,23,5,"""Open for Business!""

This is one of my absolute favorite breweries anywhere close to the Bay Area. Whenever I'm near Dixon, I make it a point to come visit..."
4247,,Running Walker Brewery & Braman Winery,TX,29.626009000000003,-95.763032,Fx9Leqp7HmCxZ_ME356dXQ,4.0,80,5,"We had a great afternoon at Braman Winery and Brewery. Despite the continuous rain that kept us inside, it was a great day. We had family members from..."
4248,Micro,Rush River Brewing Co,WI,44.89111,-92.638638,SsXVDM7RoHWCwviEOGVEGw,4.5,16,3,"The beer is pretty good, but not good enough to stand out from any of the brewers in the Twin Cities.  I've had most of RR's offerings.  They're highly..."
4249,Micro,Rushing Duck Brewing Co,NY,41.362007,-74.269538,Na,Na,Na,Na,Na
4250,Micro,Rustic Brew,IA,42.743309,-93.208345,ZGDw57_Zk4F2ih-yMsBH8w,5.0,12,5,Wish we ate lunch here so stopped to check it out. Free beer samples were a great way to pick our favorite. The service and rustic ambiance was great. We...
4251,Micro,Rustica Brewing Company,CO,39.673676,-105.000297,Na,Na,Na,Na,Na
4252,Micro,Rusty Rail Brewing,PA,40.916176,-77.053641,7Lz-xAtClRPErUn3rW_XNQ,4.0,192,5,"Enjoyed a visit to this awesome brewery yesterday, and I can't wait to go back! 

Although the bar and game room are currently closed due to Covid, we..."
4253,Micro,Rusty Truck Brewing Company,OR,44.930921999999995,-124.019908,xw2711cdUHm-g-_H2m2gTg,3.0,193,4,"We have been here a few times years ago, guess it was a while back in the peanuts on the ground days. We had a blast, eat dinner then partied in the bar..."
4254,Micro,S27 Alehouse & Brewery,CA,37.299170000000004,-121.872045,Na,Na,Na,Na,Na
4255,Micro,SHE Beverage company,CA,34.698091,-118.172266,Na,Na,Na,Na,Na
4256,Micro,SLO Brewing Co,CA,35.279321,-120.66406599999999,a79PKJkJw0-agf3rZEsIFA,4.5,246,5,I went with my husband and 2 friends for lunch on Sunday October 4th. We sat inside and servers were really nice. The beers were great and even bought some...
4257,Micro,Sailfish Brewing Company llc,FL,27.44865,-80.324136,Na,Na,Na,Na,Na
4258,Micro,Saint Boniface Craft Brewing Co,PA,40.200344,-76.20541300000001,Na,Na,Na,Na,Na
4259,Micro,Saint James Brewery,NY,40.773887,-73.081625,nHUEDCYyLOMbbfbdUBheHA,4.5,14,4,This brewery has it all - good beer good location good folks serving w a smile and a good story.  The place needs a bit of interior decorating IMO but hey...
4260,Micro,Saint Paul Brewing,MN,44.962551,-93.071893,mC1Aa9gTZHni6qjLOu24zA,4.5,60,5,"The atmosphere and pizzas are great. Beers have historically been inconsistent, but hoping that changes with the new ownership."
4261,Micro,Saint Somewhere Brewing,FL,28.145691999999997,-82.753312,CnXyyRNu80EljJy8tIzUfQ,4.5,13,5,This Brewery is a cool place! The atmosphere is chill and friendly! They are Family Owned and Unique. They specialize in Sours but all their pours are in...
4262,Micro,Salmon River Brewery,ID,44.905682,-116.09919599999999,8EYDrA6EVGG4OMjFIbjbkQ,3.5,228,5,"One of my favorites to go to anytime I come into Mccall. There will be a late with COVID, however it is well worth the wait. You give them your number and..."
4263,Micro,Salmon River Brewery,ID,44.910892,-116.097255,8EYDrA6EVGG4OMjFIbjbkQ,3.5,228,5,"One of my favorites to go to anytime I come into Mccall. There will be a late with COVID, however it is well worth the wait. You give them your number and..."
4264,Micro,Salt City Brewing,KS,38.059216,-97.931407,y9n00tTQRxKUfTq73Kjogg,4.0,12,4,"This is a great microbrewery. A nice inviting atmosphere, friendly staff, very tasty beers and Nala the dog
Is a hoot!"
4265,Micro,Salt Flats Brewing,UT,40.729845000000005,-111.94916299999998,Ow3ce2N-lKaWkUZqFbWfzw,5.0,8,5,I came from California on a business trip and this place is great. Great people very friendly staff great beer very good location. I would definitely...
4266,Micro,Salt Lake Brewing Co Squatters Pub Brewery,UT,40.762611,-111.895693,jvqChc9yXhWgp2COXq1evg,3.5,1095,5,"Squatters is a Utah classic! Local downtown brewery that actually has a good menu. It's been my go-to comfort food pick up during the pandemic. However, the..."
4267,Micro,Saltwater Brewery,FL,26.461904999999998,-80.091349,75aE8xXdrLLBO1MjjWoNNw,4.0,273,4,"If I find myself up in Delray, I will definitely make a stop at Saltwater.  They do a great job of mixing a cozy nautical ambiance with a hip and fresh..."
4268,Micro,Sand Creek Brewing Co,WI,44.292671,-90.85168900000001,Na,Na,Na,Na,Na
4269,Micro,Sandbox Brewing Company,CA,34.092971,-117.704008,Ovxx9FCXGQUGQIlLeSHC7w,4.5,28,5,"Reviewing Sandbox for their past Easter weekend special ... 3 - 32oz crowlers for $30.  

What a bargain.

I'm hoping my review gets noticed by the owner of..."
4270,,Santa Maria Brewing Co,CA,35.477696,-120.65765,7E_7y0PkMGsuwUEbaM-nUA,4.0,14,5,Great experience! Came in during quarantine to do a quick pickup of beer. Place is huuuuge! Looks great too. Little jukebox area where you can sit with...
4271,Micro,Santa Monica Brew Works,CA,34.025535,-118.476716,9hPbm3xCzGG8_XKWZz-46g,4.5,260,5,The owner is a young fun friendly guy. Super clean in there and lots of fresh air and space. They should have game nights in there because it's a great...
4272,Micro,Santiam Brewing Co,OR,44.916053000000005,-123.01997800000001,NNTq1mxVe1eHXP2sRnptiA,4.5,139,5,We just had take out and it was one of the best take out we have had since the start of the pandemic! To start it was so hot when we picked up it made it...
4273,Micro,Sapwood Cellars,MD,39.229534,-76.82344499999999,RXHo0OFM2ifWhjdKKnVg_Q,4.5,37,5,"My bartender, Tiffani, was friendly and welcoming. She helped me choose a beer I loved -- I ordered a small growler! I'd never been to their Taproom before,..."
4274,Micro,Sasanoa Brewing,ME,43.882411,-69.725775,Na,Na,Na,Na,Na
4275,Micro,Sasquatch Brewing Co,OR,45.540473,-122.71284299999999,-QuBaSAqLo_7X_oxICHXgQ,4.5,47,5,"Look, I'm a guy who likes beer and I like to think I have a pretty good idea of what's up when it comes to tasting good beer (when you suddenly have all the..."
4276,Micro,Saucony Creek Brewing Company,PA,40.501208,-75.796526,Na,Na,Na,Na,Na
4277,Micro,Saucy Brew Works,OH,41.489806,-81.710736,Jd9L7pNhC982XeCNbPncXg,4.0,223,4,"You wouldn't think a dirt and gravel lot outside a low-rise old industrial building would work, but in this time of COVID-19 and necessary physical..."
4278,Micro,Saugatuck Brewing Co,MI,42.632373,-86.212988,mxy-oO6LqCFfYeJqUtLxfQ,4.0,337,5,"While visiting the Douglas/Fennville area, we really wanted to check out a local brewery! Saugatuck Brewing is what we chose and it did not disappoint. We..."
4279,Micro,Sawbelly Brewing,NH,42.994108000000004,-70.971535,V9nYSb-Icg3VuIWhR9H_Aw,4.5,21,5,"My wife and I had lunch today.
The service was excellent and cheerful.
I had the special Mai Tai it was awesome.
We shared the Octopus appetizer and it was..."
4280,Micro,Sawtooth Brewery,ID,43.519693,-114.31648600000001,UCYh3uRvB1yp0W7vyNCAhA,4.0,13,4,"I picked up a 6 pack of Sawtooth while in Picaboo. It was the Stanley Juicy IPA. We both really liked it, and looked up the brewery. It was nearby, so we..."
4281,Micro,Schmohz Brewery,MI,42.916027,-85.54854499999999,rtANVYqH5aL2FUbCrVAKSg,4.0,45,4,"It feels like you've walked into a time machine. The decor, the vibe -- everything about this screams old school. We came here as it was one of the closest..."
4282,Micro,Schooner Brewing Co,WA,47.567763,-122.33556200000001,0GlgKR5MDmH_3upfaNkjXA,4.0,147,5,I feel compelled to write a five star review after reading the one from the twit who took her baby here. That reviewer is an idiot. This place is awesome...
4283,Micro,Schulz Brau Brewing Company,TN,35.977094,-83.926107,K84CcTJxbo0TLwZorthbLg,4.0,88,5,This place is great. It's locally owned and operated by the Schultz family and all the wonderful staff. The beers are authentic German varieties brewed with...
4284,Micro,Scuttlebutt Brewing Co,WA,47.973779,-122.194401,Na,Na,Na,Na,Na
4285,,Sea Dog Brewing,ME,44.209804,-69.064574,fqYBKJyVNOwHF74xqFERCQ,3.5,218,4,Great location in central Camden.  My husband and I were doing a drive up the Maine coast in the mid-summer this year and decided to stop for a beer and...
4286,Micro,Sea Dog Brewing Co Bangor,ME,44.796851000000004,-68.769774,P_gusIsZLMf_0jHAKdNPvg,3.0,213,5,I love this place! Their food is yummy and their beer is incredible! I ended up joining their mug club (something  I would not normally do) because it's so...
4287,Micro,Sea Dog Brewing Co Clearwater,FL,28.009746999999997,-82.732559,v7QNBLegUpSQD74lhXx15A,3.0,114,4,SeaDog Brewery is now open again after the quarantine break.  They are following social distancing meaning they moved tables around 6 feet apart and...
4288,Micro,Seapine Brewing Company,WA,47.569221999999996,-122.328721,31Iv53iDI5pXvAqOOTDKPQ,4.5,83,5,"Just a note that the hours posted on Yelp are wrong since they've been reduced as a result of COVID. 

Their taproom is closed but they still offer beer for..."
4289,Micro,Seapine Brewing Company,WA,47.576073,-122.335502,31Iv53iDI5pXvAqOOTDKPQ,4.5,83,5,"Just a note that the hours posted on Yelp are wrong since they've been reduced as a result of COVID. 

Their taproom is closed but they still offer beer for..."
4290,Micro,Sebago Brewing Co,ME,43.678505,-70.439247,wpBf1V6soOHO7N58HtPZhQ,4.0,53,5,"For dining during COVID, this is where you want to be. The food is awesome and the staff is so careful to protect their customers and employees. Do yourself..."
4291,Micro,Sebago Brewing Co,ME,43.689378000000005,-70.393935,_EF2tKLHB_Mz3Md34_Vymw,4.0,48,5,"This place is very welcoming as you first walk in. The Service was very friendly with great recommendations. My wife can never decide lol.


We ordered apps..."
4292,Micro,Second Chance Beer Company,CA,32.994716,-117.082131,6pm7E-B4nMBt5j6LqeA_aw,4.5,248,5,It's been awhile since I've been here. Came here today with COVID-19 conditions. Excited to see ample outdoor seating with social distancing...
4293,Micro,Second Line Brewing,LA,29.982621,-90.10547700000001,UPIQcVZh5Bb_XloiNpSq0Q,4.5,75,5,"Great atmosphere, loved sitting outside here on a Friday afternoon with the Southerns truck around to provide munchies. I'm not a huge beer person, but from..."
4294,Micro,Second Self Brewing,GA,33.805593,-84.430062,dg6NjzkBII6zaHethzVt3Q,4.0,52,5,"We went at 8:00 on the last Friday night of the month, when they have comedy! My friend told me about the event and I'm so glad she did! This was my second..."
4295,Micro,Seismic Brewing Co,CA,38.407928999999996,-122.722698,Na,Na,Na,Na,Na
4296,Micro,Selkirk Abbey Brewing,ID,47.704401000000004,-116.866193,3GrIdOW2l-vZc6ELO_vRrg,4.5,35,5,Absolutely stunning decor; owner/head brewer Jeff is so pleasant to chat with and made the entire experience above and beyond for us. I'm huge fan of...
4297,Micro,Seneca Street Brew Pub,NY,43.002272999999995,-75.975989,Na,Na,Na,Na,Na
4298,Micro,Sentinel Peak Brewing Company,AZ,32.249444,-110.89118500000001,Na,Na,Na,Na,Na
4299,Micro,Separatist Beer Project,PA,40.698161999999996,-75.226342,fZjdqcmvJc2OQ04tacZSmA,3.5,60,5,"Not sure why there are many poor reviews, perhaps some previous mistakes and poor choices from the past? I've always enjoyed the beer and the vibe. I've had..."
4300,Micro,Service Brewing Company,GA,32.084425,-81.098461,mvdHYr6QoygkWJrBmyVqrA,4.5,133,5,Service has always been my husband's favorite brewery! One of the best local businesses that we love ! He was craving for some of their delicious beer since...
4301,Micro,Seven Stills,CA,37.768353000000005,-122.399515,AAw1s9gOa80xG-dENugWEg,4.0,127,5,"Oh how we love Seven Stills! They are a one stop shop for delicious elevated food with a southern flare, amazing cocktails/beer selection, alcohol to take..."
4302,Micro,Shade Tree Brewing,OR,43.992564,-121.358855,Na,Na,Na,Na,Na
4303,Micro,Shades Brewing,UT,40.72402,-111.894931,paAHJAebFKEAOkQ-uYj1jQ,4.5,58,5,During covid I went to shades for their delicious brews every Thursday on release days. Their beers are so unique and delicious! My favorites have been...
4304,Micro,Shady Oak Barrel House,CA,38.437073999999996,-122.71523400000001,dxJC89nAthvOL07Inue9Sg,4.5,37,5,"I had an absolute  blast here. Also the beer is pretty good.

Parking is street only-although there are allegedly a few spots behind the building. For the..."
4305,Micro,Shaft Brewery,CA,33.819546,-118.388667,Na,Na,Na,Na,Na
4306,Micro,Shale Brewing Co,OH,40.886596999999995,-81.42429399999999,Na,Na,Na,Na,Na
4307,Micro,Shattered Oak Brewing,OR,45.33362,-122.58081000000001,ObVku7CUdhfsgqIriRElng,4.5,21,5,Great experience here when visiting from out of state. We enjoyed both the food truck and the draft beers. They are doing a good job complying with COVID...
4308,,Shattuck Brewery LLC,ID,46.778376,-116.191979,Na,Na,Na,Na,Na
4309,Micro,Shebeen Brewing Company,CT,41.574627,-73.001746,cVCDGDrNOA_tFjVv6fdt_g,4.0,82,5,"What's that you say? You need a tipsy review? Imma your girl!

We hail from Jersey and, in our cozy NJ hood, there's a local bar that carries Bullet Takes..."
4310,Micro,Sheep Mountain Brewery,WY,41.151252,-105.98487,Na,Na,Na,Na,Na
4311,Micro,Sheepscot Valley Brewing Co,ME,44.145062,-69.604843,Wj-mzlSbGhJlGzOaN8RIAQ,4.5,6,4,"Though tough to find, this tiny brewery puts out some seriously delicious brews that can be found throughout the region in restaurants and even in growlers..."
4312,Micro,Shoug Brewing Company,WA,45.61197,-122.34002199999999,Na,Na,Na,Na,Na
4313,Micro,Shubrew Taproom,PA,40.801496,-80.124324,eWoPCK8IJTQBrtGFO0vFWw,4.5,5,4,"I'm always a fan of the small local businesses. I don't know Zach, but he seems to be a friendly enough guy the times I've seen him there. The other guy..."
4314,Micro,Sibling Revelry Brewing,OH,41.470077,-81.946489,tXQQ2_fbF7d4FKKODrJFCQ,4.5,85,5,"Stopped by per recommendation on the way home from errands. Tried the Tangelo Hazy IPA, wife tried the SRB Lager. We didn't try the food this time. Maybe..."
4315,Micro,Sierra Blanca Brewing Co,NM,35.000465000000005,-106.023991,gbFZgP_SoRppWPKNAregjQ,4.5,32,5,The owners and their respective staff have worked incredibly hard at creating a wide variety of extremely delicious beers. From a crisp and light Pilsner to...
4316,Micro,Sig Luscher Brewery,KY,38.201526,-84.875023,eZcw8KANTcrIPiD3YKfYzA,4.5,23,5,"Sigs has mastered the CoVID situation, created a really nice covered outdoor seating area and beer garden and always feel safe here. The beer is tasty and..."
4317,Micro,Silva Brewing,CA,35.620146000000005,-120.68865900000002,r1CfaN3sh8DSyYPkP8_v2A,4.5,39,5,"Our first time in Paso Robles and we had to stop at Silva Brewing (same last name!). MJ, Chuck, Dylan (and Boyd!) made us feel so welcome and took great..."
4318,Micro,Silver Gulch Brewing Co,AK,64.958353,-147.621326,uoTePYzKXzNLtezZP8_wUA,3.5,271,4,I would say they should upgrade the dollar signs to $$$ instead of $$ because this place is pricey... their food is delicious though and the beer is great....
4319,Micro,Silver Moon Brewing,OR,44.06043,-121.30791299999999,ByFouma6IbfcUKMTngiOag,4.0,205,5,Great spot to stop at. The staff was super attentive! We peddled our little hearts out and the place is beautiful. Even on a hot 102 degree day in Bend. The...
4320,Micro,Silver Moon Brewing,OR,44.237854,-121.192438,Na,Na,Na,Na,Na
4321,Micro,Silver Reef Brewing Company,UT,37.032906,-113.574174,hCC2aMSWLNiecIOztpCIlA,5.0,5,5,We had such a great experience today doing curbside pickup. The very friendly and welcoming owners and staff were filling the orders. The beer is delicious!...
4322,Micro,Singin' River Brewing Company LLC,AL,34.801657,-87.66896899999999,Na,Na,Na,Na,Na
4323,Micro,Singing Hops Brewing Company,WA,47.004365,-122.92751399999999,Na,Na,Na,Na,Na
4324,,SingleCut Clifton Park,NY,42.901476,-73.79284799999999,Na,Na,Na,Na,Na
4325,Micro,SingleSpeed Brewing,IA,42.496871999999996,-92.341787,uw3yBM_xygeUh_WOwvy6qQ,4.0,114,Na,Na
4326,,Six Mile Bridge Brewery,MO,38.715109000000005,-90.43303900000001,Hh-Fx4XKNghlHBC8CVD0OQ,4.5,55,5,Beer is awesome - personal favorites are the Isla IPA and North Shore Lager. Food is really exceptional - both the pork burger and salmon bowl are quite...
4327,Micro,Skagit Valley Malting,WA,48.472818,-122.408803,slSViZm_SSYX1k2tRTD0Sw,4.5,13,3,I've been wanting to check out Garden Path Fermentation for the last few months. Finally made a pit stop in Skagit on the way to Seattle. They're located...
4328,Micro,Skull Camp Brewing,NC,36.499662,-80.768423,LQPt9Vj5GqWoQpI2W5oeAw,4.5,43,5,We had a great experience at around Peak Vineyards. The dry red wines we tasted were wonderful. Due to Covid the patio was only a 1/4 full so we had lovely...
4329,Micro,Skull Camp Brewing,NC,36.284290000000006,-80.851524,15bHY6gxrx6yeRUUR7cLrA,4.0,46,5,"So I want to start by saying that the service here is amazing. My partner and I were stopping through on a visit to Stone Mountain, and we were not..."
4330,Micro,Skydance Brewing Company,OK,35.472885,-97.600536,apa_dXUfUZp7IpmT_MG99A,5.0,11,5,"Yum, yum, yum. 

Came to Brewers Union. 

Had a 4oz coffee stout and tried a few others. 
The coffee stout was something incredible. Rich, strong, savory..."
4331,Micro,Skyline Brewing Company,OR,42.137031,-121.783079,6mY1eqQ6P_ObJgW41QFFng,5.0,1,5,"Located in an old dairy building in the middle of farm country south of Klamath Falls, Skyline Brewing produces some outstanding beers that are sold in the..."
4332,Micro,Skytown Beer Company,NC,34.247275,-77.881953,2kRH0I4CJKcJQMEf1HegoQ,4.5,67,5,"I sure do love all of the new breweries popping up around Wilmington within the last 2 years, and this is definitely a good spot to grab a beer.

My wife..."
4333,Micro,Sleeping Giant Brewing Company,CO,39.72364,-105.01611899999999,e-UQTdRwL6n9PvQ6Ga3HCg,4.5,96,5,"Aaron, Nate, and Jessica are the best! 
This was my first ever experience at a cider tasting. 
Also my first cider flight experience. 
And it was amazing!..."
4334,Micro,Sleepy Dog Brewing Co,AZ,33.422622,-111.90411100000001,Na,Na,Na,Na,Na
4335,Micro,Sly Fox Brewhouse and Eatery,PA,40.13091,-75.547498,VWraqFfeQkwmJRRqUYUJzQ,3.5,154,5,I'm still dreaming about the Pork Schnitzel on the Pretzel Bun. Holy cow - do yourself a favor and order one of their pretzel roll sandwiches because they...
4336,,Smartmouth Brewing Pilot House,VA,36.860234000000005,-75.980783,ikZCx7HOCKOm56V0aGYOEw,4.0,29,4,Nicely laid out brew pub.   I imagine when not Covid they prob have some game type stuff around too.  I really like the way they are handling Covid with the...
4337,Micro,Smog City Brewing,CA,33.847094,-118.313672,yd0ukCvLBvNa7qiLGrisqA,4.5,443,5,In the craft beer world they represent the LA area very well. They have beers that have been well lauded and don't really need a review. Those pussy is...
4338,Micro,Smog City Brewing Wood Cellar,CA,33.847094,-118.31267700000001,Na,Na,Na,Na,Na
4339,Micro,Smoke Mountain Brewery,CA,34.393168,-119.435971,Na,Na,Na,Na,Na
4340,Micro,Smoketown Brewing Station,MD,39.313823,-77.630306,LrKN-j28L7LjgPRRVEs9aA,4.5,57,5,"Customer service was excellent. The building is an old fire station turned into a brewery, complete with firefighter uniforms as decor. 
The bar was quiet..."
4341,Micro,Snafu Brewing Company,SC,32.925574,-80.068851,8Y78Y-4Nj_F9MKPHs4J6NA,4.5,26,5,"Friendly staff, welcoming Newfoundland pup and delicious beer. Definitely a place we would like to hang out and spend more time."
4342,Micro,Snake River Brewing Co,WY,43.476754,-110.765573,nyw0gut-UVZDvz65gAeBeQ,4.0,1226,5,I came here for dinner on a Sunday night and the wait was a while.  There's outside seating in the patio area and they created outside dining in their grass...
4343,Micro,Snowbank Brewing,CO,40.589953,-105.05833999999999,ETRyOi9dn-KABsBakwH_qA,4.5,50,5,"Just a fun little brewery with amazing creative beers!

I have been here a couple of times and they always have so many delicious beers, it's hard to make..."
4344,Micro,Snowy Range Brewery,WY,41.341246000000005,-106.183527,ezWZJ53xCibNuPkE7aHYjA,4.0,21,5,"Notes on specific trails, from the perspective of skiers who like speed but consider moguls verboten:
The Good: Seminole, Arapahoe, Drifter, Rawhide,..."
4345,Micro,Sociable Cider Werks,MN,45.004544,-93.24417199999999,N20WlHUzfwZZcryJAjnrnQ,4.0,183,5,It's amazing that they've set up in a way that makes it not only work for the brewery but also for covid. The table are well spaced (further than the...
4346,Micro,Societe Brewing Company,CA,32.833884000000005,-117.14634099999999,i0z5qviFAZe5knHFwSIYSg,4.0,622,5,"I have been here twice during the pandemic. The first time was back in May and they only had pickup orders then.

Now things are way different and..."
4347,Micro,Solace Brewing Company,VA,38.950784999999996,-77.527977,_pbGUQCgGX9go9eDMdes6Q,4.0,88,5,Beautiful place with excellent beer choice . Went there to break the spell of quarantine and place was following the restrictions by all employees wearing...
4348,Micro,Solemn Oath Brewery,IL,41.776289,-88.18825600000001,27jrRTf_HXWXd9P04gR27Q,4.0,244,5,"Illinois COVID Phase 3 update -- 17 outdoor tables, 8 standing spots, most with umbrellas. Fabulous spot for a perfect June Friday afternoon. Drinking..."
4349,Micro,Solvana Brewing,OR,45.478753000000005,-122.449774,Na,Na,Na,Na,Na
4350,Micro,Sonoma Springs Brewing Co,CA,38.294652,-122.47756499999998,EeLQR1aj4vReei1XilbpLw,4.0,48,5,BEST HOT DOGS EVER!! My husband and I came out here for a beer and get some fresh air. We have been too cramped up at home these days. They had a cool...
4351,Micro,Soquel Fermentation Project,CA,37.087449,-121.948043,Na,Na,Na,Na,Na
4352,Micro,Soulcraft Brewing,CO,38.524574,-106.00634099999999,5_t34f9URuhlXVdLBGR-ug,4.5,49,5,"A wonderful vibe, and they take social distancing seriously. Bartenders are patient and friendly. We sat with our lovely dog on the patio and tried a few..."
4353,Micro,South Shore Brewery,WI,46.587317999999996,-90.892205,h2dFWudpB6qyfsCJNGtLFQ,4.0,14,5,Great atmosphere! The pizza was awesome. Had the marguerita pizza and crust was thin and crispy and ingredients were fresh.
4354,Micro,South Shore Brewery Washburn,WI,46.670361,-90.902213,Na,Na,Na,Na,Na
4355,Micro,South X Southeast Minnesota Brewing,MN,44.201584999999994,-92.627899,vF-76mzbAHBYT5u4pu6TOQ,5.0,2,5,Great brewery with indoor and outdoor seating options. We visited while they were still very new and had just 6 beers to pick from. The variety was good to...
4356,,Southbound Brewing Co,GA,32.087053999999995,-81.11178699999999,BT-NsGc3G4IQeAWGUhMzjQ,4.0,59,5,"The beer was very good, I would give it a 8/10. Staff and atmosphere were great too with a large outdoor patio space. Dogs allowed indoors. Would definitely..."
4357,Micro,Southern Barrel Brewing Company,SC,32.271467,-80.91985600000001,qBbyxb9iFtC7lz0SrWVBnQ,4.0,165,5,"Tried this place for the first time today.  Excellent beer, good food and amazing service.  They are wearing masks, practicing social distancing and..."
4358,Micro,Southern Brewing Company,GA,33.984896,-83.348743,p9R62HJTcv9A4U5KAeIWJA,4.5,25,5,Spent 4th of July sitting on the grass listening to great local music and watching neighboring fireworks. The highlight of the visit was the incredibly...
4359,Micro,Southern Pines Brewing Company,NC,35.187078,-79.371746,rLtAezbyM50t8qqvUcOuMg,4.0,48,5,"I love Southern Pines Brewery.
While it might seem small, it is mighty and fits in perfectly with Moore County's vibrant, ever evolving landscape.
The staff..."
4360,Micro,Southern Prohibition Brewing,MS,31.330231,-89.28965,kBlY-Y_I8otW6p2kO1Ypeg,4.0,21,5,"We've been touring the MS-LA area visiting Craft Breweries on weekends.  While they've all be great, we enjoyed our visit to So Pro so much that it will be..."
4361,Micro,Southern Star Brewing,TX,30.358763,-95.477613,6I6dO4EkYg4WXj9n-_y5Uw,4.5,39,5,"I can't believe I haven't reviewed this place before. One of my favorite breweries and definitely my favorite beer venue. 
Their indoor tap room rests above..."
4362,Micro,Speakeasy Ales and Lagers,CA,37.738146,-122.38065800000001,-x6LI9LyWI5zq7ZslszEIA,4.5,405,3,These folks have an awesome outdoor set-up for the covid times. I couldn't tell you if the parking lot converted to a picnic table beer garden was a new...
4363,,Spearfish Brewing,SD,44.490831,-103.859817,TeaFR4gqh6R9k-l5FkUvSA,4.5,14,5,"My wife and I were in Spearfish, SD, about an hour north of Rapid City and we had just visited the fish hatchery, which they said get 150,000 visitors a..."
4364,Micro,Spellbound Brewing,NJ,39.991149,-74.801187,LajfXVEJ3SYwjby3zociHw,4.0,82,5,"This is an exceptional location for amazing beer. It's so good I can't believe it's right up the street from me. 

The variety of beverages they serve is..."
4365,Micro,Spencer Brewery,MA,42.29883,-72.01713000000001,ZjEXMn691-IfHvvUtmDjyg,5.0,4,5,"Enjoyed the Trappist Ale at Fish Restaurant and Wine Bar. At first I was...Seriously...a Trappist Ale from Spencer, MA, no way. While the beer is considered..."
4366,Micro,SpindleTap Brewery,TX,29.86818,-95.31432099999999,5tYCgTEdhchF2o37iy1NKw,4.0,88,5,This is such a great place and spacious. It's kid-friendly and the food and drinks were great. They have a pizza truck (haven't tried) but the food from the...
4367,Micro,Spiteful Brewing,IL,41.979948,-87.68064100000001,o-Wrqa3itRP251PLTKOmIA,4.5,48,5,"This place just gets it. Really nice and welcoming staff, great Covid plan and of course awesome beer.  Kudos to this nice and unpretentious brewery."
4368,Micro,Sprecher Brewing Co Chameleon Brewing,WI,43.099554,-87.919689,PPlfXt5smguFhLb1Jgr-jw,4.0,219,5,"We attended a wedding at Sprecher the past weekend, which prompted me to realize I haven't written a review.  The wedding was wonderful and Sprecher was a..."
4369,Micro,Spring House Brewery,PA,40.02998,-76.308353,8dmbYfe0BlqN9Jmp0P8xKQ,3.5,168,4,"Wings were good and fresh, maybe not the celery that came with it though!! But the smoked meats were to die for they we so good!!! Veggie medley was amazing..."
4370,Micro,Square Wheel Brewing Co,WA,47.698297,-117.24955600000001,Na,Na,Na,Na,Na
4371,Micro,St Clair Brown Winery & Brewery,CA,38.30482,-122.286674,m2QHxP8_qJBER5lPDM-Spg,4.5,220,5,"Awesome food truck...amazing vegetarian Mexican food too. Very safe with social distancing. Loved it and will be back. Great service. Seriously, get..."
4372,Micro,Standard Deviant Brewing,CA,37.768524,-122.419468,40gAyCmMKcQY_L-_YC0Szw,4.5,147,5,God bless these guys for keeping brewing and making it so easy to order and safely pick up. I'm a serial offender with the crowler three packs and have...
4373,Micro,Stargazer Brewing Company,PA,39.953115000000004,-75.742265,Na,Na,Na,Na,Na
4374,Micro,Starpoint Brewing LLC,NC,35.873477,-79.083811,Na,Na,Na,Na,Na
4375,Micro,Starving Artist Brewing,MI,43.944015,-86.339058,K85JGda4rt0byYQ4rHZZsA,5.0,2,Na,Na
4376,,State 48 Brewery,AZ,33.45111,-112.07874199999999,WrZCaSm4QX6HTzyVCmOdWw,4.0,168,5,"I drove up from the borderland to spend a day in Phoenix, hike at sunrise and sunset, and drink beer in between.  This was my first stop after hiking with..."
4377,Micro,Steady Hand Beer Co,GA,33.79777,-84.424662,QqYCajrFprFWqWltzwj1cg,4.5,21,5,We went around 2:30 on a Sunday. They have a really large space with tables spread very far apart. They also have a really cute outdoor area with seating 6...
4378,Micro,Steam Bell Beer Works,VA,37.456067,-77.62569,gFg1ObQkkfyVotK4H1Xckg,4.5,40,5,"Great brewery and fantastic atmosphere! I'm pretty familiar with some of their beers (Tiramisu Stout, yum!), it was such a beautiful day that we decided to..."
4379,Micro,Steam Donkey Brewing Co,WA,46.974189,-123.817586,veoV3X8F2o_JjKuchjtkrQ,5.0,30,5,"Great people, Solid beer, and--most importantly--a fun environment, even amidst all this COVID stuff. Go check them out if you're in the area!"
4380,Micro,Steam Hollow Brewing Co,IL,41.24439,-87.85643,hJt-U3TwgAk9lt_i-mcelg,3.0,14,5,This place is definitely a Gem.  Owners and and other staff are very welcoming and clearly have a love for what they do Nice open space and super cool Steam...
4381,Micro,Steel Hands Brewing,SC,33.96656,-81.05781800000001,t6-rc52HBWpTpla2VqdvTQ,4.5,61,5,"What an awesome brewery! While I've enjoyed their fantastic beverages at home, it sure was nice to break out and visit their amazing spot!

Family friendly..."
4382,Micro,Steel Toe Brewing,MN,44.941604999999996,-93.341009,-II09MOu5_E6i9c-RQXCAQ,4.0,88,5,First things first: delicious beer! They have a nice system in place to keep people safe during the pandemic. (Not as safe as staying home!) Dog-friendly...
4383,Micro,Steinhardt Brewing Company,MD,39.391036,-77.513889,Na,Na,Na,Na,Na
4384,Micro,Steinhaugen Brewery,NC,36.107363,-80.238881,Na,Na,Na,Na,Na
4385,Micro,Stesti Brewing Company,TX,31.082212,-95.562504,ZG8eXKLHp5zBrOQEzwInvw,4.5,3,4,"Great local brew, very inviting for the locals in the area. Brewmaster knows his brews. Just wish it was open more often"
4386,Micro,Stesti Brewing Company,TX,31.082202000000002,-95.562525,ZG8eXKLHp5zBrOQEzwInvw,4.5,3,4,"Great local brew, very inviting for the locals in the area. Brewmaster knows his brews. Just wish it was open more often"
4387,Micro,Stillmank Brewing Co,WI,44.504378,-87.978397,Na,Na,Na,Na,Na
4388,Micro,Stone Church Brewing,CA,33.493967,-117.149272,ev7BllY7VPz5yiV3-GazoA,4.5,25,5,"Second stop on our brewery tour of Temecula was Stone Church Brewing! 

This was my first time trying a brew by SCB - which is kind of funny since their..."
4389,Micro,Stonecloud Brewing Co,OK,35.468579,-97.52913199999999,gJE_AxKEqnfKtQF0maH18w,4.5,90,5,"Stopped In With My Hubby On A Tuesday.. We Seek Out As Many Local Breweries When Traveling.. This Is A Beautiful Stop-Bright, Clean, Welcoming.. It Was A..."
4390,,Stoneface Brewing Co,NH,43.11537,-70.819019,Q7uXy4JrFrMoWbfzWspKJA,4.5,67,5,Just had a smash burger at Stoneface. Hands down best burger I have ever eaten. We frequent here often but not since COVID-19. This is a homer in place to...
4391,Micro,Stoneman Brewery,MA,42.706239000000004,-72.78057199999999,Na,Na,Na,Na,Na
4392,,Stoneyard Production Brewery,NY,43.2157,-77.942985,Na,Na,Na,Na,Na
4393,,Stormcloud Brewing Company Production Facility,MI,44.634837,-86.22130899999999,Na,Na,Na,Na,Na
4394,Micro,Stoudts Brewing Co,PA,40.241194,-76.05632299999999,Na,Na,Na,Na,Na
4395,Micro,Stoup Brewing,WA,47.666693,-122.37121200000001,0dsIdScST8bMVoziLDwGbw,4.5,186,5,"Love the beer. It's a great outdoor space especially during COVID-19, but I wish they would move the trash cans."
4396,Micro,Straight to Ale,AL,34.720841,-86.607039,QQLspzxq9r-pp4UVv8drVg,4.0,130,5,"Came in fromFranklin TN to see the US space museum and stopped for lunch. God is excellent and very unique.  Loved it all. Highly
Recommend and will be back"
4397,Micro,Strand Brewing Co,CA,33.841345000000004,-118.32138400000001,rK1hEGYnvTOF4z6CrgBo9g,4.5,193,5,I've had the pleasure of enjoying excellent beers at the brewery twice pre-Covid and have picked up a couple of 4 packs to-go since quarantine started....
4398,Micro,Strange Roots Experimental Ales,PA,40.620773,-79.915165,kuljQy5CCZzIfTWLBpCf7w,4.5,16,3,We enjoyed our time there and the food was good but there was only 1 beer we liked (which was juicy/hazy) - the rest of the beer options were pretty much...
4399,Micro,Strange Roots Experimental Ales,PA,40.479034999999996,-79.968763,AUmfp8JRMubNrPqSGY1bgQ,4.0,108,5,"I love good sour beers. My favorites used to come from Russian River Brewing in Santa Rosa, CA. I've tried many other sours and generally been disappointed...."
4400,Micro,Strangeways Brewing FXBG,VA,38.272991,-77.456257,Na,Na,Na,Na,Na
4401,Micro,Straub Brewery,PA,41.427482,-78.553481,N7qie-A4nYwjAp_Dse1Ufg,5.0,43,5,"Had a great outdoor evening enjoying fresh, cold Straubs beer! Night was beautiful and the beef on weck very good.   The manager, I can't remember her name,..."
4402,Micro,Strike Brewing Co,CA,37.310547,-121.858074,w5JurjsImKLLPqPN3-GEhQ,5.0,12,5,My first virtual tasting event for the year!! I haven't heard of Strike Brewing previously so I was excited to be accepted for this VYE! I ordered online...
4403,Micro,Sudwerk Brewing Co,CA,38.54736,-121.72515,Na,Na,Na,Na,Na
4404,Micro,Sugar Creek Brewing Co,NC,35.185327,-80.88081899999999,IDIjbLpatjS3gSnliPxtoA,4.5,219,5,This was the second time I have been there since the lockdown. Fourth time over all. The beer was excellent and service was great! The new menu was...
4405,Micro,Sumerian Brewing Company,WA,47.74006,-122.15370700000001,jUvQZ1V6KBn0LY_9Zkv3zw,4.0,60,5,"I just have to say, this brewery is TOP notch.   During COVID they have done everything to get their beer easily to their customers including great pricing..."
4406,Micro,Sun King Brewing Fishers Small Batch,IN,39.928306,-86.024221,Na,Na,Na,Na,Na
4407,Micro,Sundowner Brewing Co,CA,34.145609,-118.79586299999998,Na,Na,Na,Na,Na
4408,Micro,Sunken City Brewing Co,VA,37.118583,-79.722672,SoDlafoExHHWD6akxdY4-w,3.0,31,4,"This is a fun place to spend an afternoon, especially when the weather is nice. We usually stop by Kroger first for some snacks (homemade salsa, salami, and..."
4409,Micro,Sunriver Brewing,OR,43.863735,-121.43525,I9mlTIQL6ieaWnbmzNhV1g,4.0,197,5,"Quite possibly the best eggs Benedict I've ever had. The husband got the sausage scramble, and we couldn't eat our breakfast fast enough to keep the toddler..."
4410,Micro,Sunshine Brewing Company,WI,43.079019,-88.913327,sYgtb-y5EkT0oN80JmHW6w,5.0,8,4,"Great true Micro brew with Awesome Tacos.   Great open ""garage"" area plus outside dining.  Staff super friendly.   Great selection of brews run the gamut..."
4411,Micro,Super Brewing Company LLC,OR,45.538475,-122.41686000000001,Na,Na,Na,Na,Na
4412,Micro,Susquehanna Brewing Co,PA,41.303759,-75.80585500000001,GeQd0SrSaRyDLHAA4vM_wQ,4.5,31,5,"Stopped by for some brews and something to eat. Beer service was great! Fresh and cold. Ordered ""A Hot Mess"" or something along those words; from The Food..."
4413,Micro,Swamp Head Brewery,FL,29.614746999999998,-82.37686500000001,giJPnFkaJAGtxdWmrD1pnA,4.5,118,5,"Great brewery on a normal day but importantly (and impressively) they're doing drive-thru pickup right now that works so well! Order online, drive up, and..."
4414,Micro,Swashbuckler Brewing Co,PA,40.227256,-76.430357,1cqCUqKBk8mVg0gwBgjKAA,3.5,4,3,Outdoor venue is cool. Not well advertised and easy to miss. Small menu. Not very impressed with the beers and no IPAs that were hoppy enough for my taste....
4415,Micro,Sycamore Brewing Cannery,NC,35.24615,-80.826303,Na,Na,Na,Na,Na
4416,Micro,THAT Brewery Cottonwood,AZ,34.734265,-112.024694,-65915MM9E8GgdbG05Hhwg,4.5,44,5,I love to pick up dinner at Hog Wild and come over to the brewery.  Love their beer and love their staff.  That Brewery is one of my favorite places to...
4417,Micro,Thimble Island Brewing Company,CT,41.296713000000004,-72.771535,Y0Y56TRNZCQi03utwXSN-w,4.0,85,5,Awesome brewery that's handling this pandemic thing right!!! Plenty of outdoor seating and picnic tables big enough for 6. They serve you beers which makes...
4418,Micro,Thimble Island Brewing Company,CT,41.298003,-72.751566,Y0Y56TRNZCQi03utwXSN-w,4.0,85,5,Awesome brewery that's handling this pandemic thing right!!! Plenty of outdoor seating and picnic tables big enough for 6. They serve you beers which makes...
4419,Micro,TRVE Brewing Co The Acid Temple,CO,39.719846000000004,-105.018947,Na,Na,Na,Na,Na
4420,Micro,Table 41 Brewing Co,NY,42.772539,-73.754361,Na,Na,Na,Na,Na
4421,,Tabol Brewing,VA,37.562256,-77.441411,TGb7sI1imi1u-d-z7H9RRQ,4.5,24,5,"The space is cool and there's plenty of it.

The beers are wild, hoppy, roasty, funky, etc. 

The folks are friendly and cool. 

This is a very tasty place..."
4422,Micro,Take 16 Brewing Company,MN,43.654445,-96.203615,Na,Na,Na,Na,Na
4423,Micro,Tampa Bay Brewing Co Brewpub,FL,27.961452,-82.44155400000001,4gszBjoouIzfi1ltSQZ2BQ,4.0,1048,Na,Na
4424,Micro,Tampa Bay Brewing Co Production Brewery,FL,28.038178000000002,-82.647669,Swjkmg5qAHT6hwXQRWQoHQ,4.0,424,5,"The Tampa Bay Brewing Company (TBBC) located in Westchase is one of our favorite local places to take out-of-town guests, and everyone we take there has..."
4425,Micro,Tannery Bend Beerworks,CA,38.285088,-122.28757900000001,89RDxPPjKsBbLEcEZPKcag,4.5,69,5,"This place is awesome! We came here for trivia last Tuesday night and it was so fun. The beer was wonderful, the trivia host was great, even the food was..."
4426,Micro,Taproot Brewing Co Newport Vineyards,RI,41.529309000000005,-71.272643,sJEZoOHMPQ7urDHC2w2t0A,3.5,32,4,"We visited Taproot during COVID and sat outside on the back patio. Very scenic and enjoyable atmosphere. 

We started with wine/cider flights and the spiced..."
4427,,Taxman Brewing Co,IN,39.520951000000004,-86.166948,ASyf88VJEkn8vTlVE3E5eg,4.0,314,5,"First time here and I'm already obsessed with this place. 

First of all, this beer list is speaking my love language. A ton of different Belgian styles (my..."
4428,Micro,Telegraph Brewing Co,CA,34.422814,-119.687894,T0TAXNzN7oY1wRC8jslTjw,4.0,139,5,"Pittsburgh guy here, who happened upon this brew pub last night. Can't agree with the previous reviews at all. I found the service to be beyond spectacular..."
4429,Micro,Telluride Brewing Co,CO,37.946163,-107.876368,YO9sLYx_5xELbYCc0b3KPA,4.5,24,5,"Must go brewery, amazing beers, amazing staff, if you're in Telluride must stop. Long day after the slopes must grab a beer."
4430,,Temescal Brewing,CA,37.798927,-122.279633,U73D-nolERkEEWNSCbkozQ,4.5,66,5,Federation Brewing is simply the best beer around. They are known for their delicious hoppy IPAs including my personal favorite -- In the Weeds.  Honestly...
4431,Micro,Temperance Beer Company LLC,IL,42.040157,-87.702081,Na,Na,Na,Na,Na
4432,Micro,Ten Bends Beer,VT,44.588440000000006,-72.605715,Toq7XZFHKlldS4BNwcyjNw,4.5,4,4,I had their Cream Puff War at Stowe Cider and it was amazing. So I made it a priority to get to the brewery the next day they were open. They have a super...
4433,Micro,Ten Pin Brewing Production Facility,WA,47.14502,-119.277796,Na,Na,Na,Na,Na
4434,Micro,Ten Sleep Brewing Company,WY,44.029829,-107.46941000000001,9k2Qyh1w9NX-NUkbOtSDOg,4.5,28,5,"This place is a must visit if you're in Ten Sleep! We were able to buy the climbing book, and get some good advice from the bartender for the next day.
The..."
4435,Micro,Tennessee Brew Works,TN,36.15034,-86.776324,dYYkzkiAQoOtRjdR0kcspw,4.5,352,5,"It was our first time here at this brewery and trying locally brewed Nashville beer. 
Atmosphere is very fun and typical for a brewery: nice open bar area,..."
4436,Micro,Tequesta Brewing Co,FL,26.958844,-80.084091,HU3-7hXXgEjSCEza5bEJ8Q,4.5,104,5,"Great local craft beer spot, and a perfect location. Would recommend to anyone in the area. Even for the domestic beer drinker, trust me."
4437,Micro,Terminal Gravity Brewing Co,OR,45.419171,-117.271472,ob01icd77iSgT3_XkUB_Aw,4.0,155,5,"The local bison burger is the best burger I've ever eaten. Cooked just right, super juicy. Very fresh bun, nice and spicy with the jalepenos, it just..."
4438,Micro,Territorial Brewing Company Production Facility,MI,42.314422,-85.229487,Na,Na,Na,Na,Na
4439,Micro,Texas Ale Project,TX,32.786066,-96.81824,a-ysesvwWVGkWGvWH6fGqQ,4.0,55,5,"GREAT beers, Nice location, Chill atmosphere, 
Awesome events and activities on site. Everything in want from a local brewery. I am a sucker for their..."
4440,Micro,Texas Beer Company,TX,30.568972,-97.409847,ZZJvmd-NVh_fN0lZVuKYhw,4.5,51,5,"2nd visit here, confirmed our first impression - great little brewery, well worth a trip to check out for beer nerds. All the brews we've tried are..."
4441,Micro,Texas Beer Company,TX,30.567664,-97.42406700000001,ZZJvmd-NVh_fN0lZVuKYhw,4.5,51,5,"2nd visit here, confirmed our first impression - great little brewery, well worth a trip to check out for beer nerds. All the brews we've tried are..."
4442,Micro,Texas Leaguer Brewing Company,TX,29.62769,-95.54775,qJ6m-ikNwM0U8IombH68og,4.5,21,5,"Love this place. The people, the environment, the beer, and all that comes with having a good time with friends and family. This places provides all of that..."
4443,Micro,The Ale Apothecary,OR,44.051291,-121.33108,xERr-duvoe09ESiz71b6PA,4.5,19,5,Pretty grateful to have this place recommended to us by the cute dude from Spider City. We heard the people at the table next to us were referred by Spider...
4444,Micro,The Black Abbey Brewing Company,TN,36.105932,-86.755436,HRK3Tfpi2V6fh5KOUyTc9Q,4.5,91,5,Very neat place. I got a cask ale and it was very tasty. It's a bit out of the way but worth the drive. Staff are very nice and keep the place clean.
4445,Micro,The Blue Heron Brewery,OH,41.112840000000006,-81.804477,1G_3tit07P7z4XSI10LQmw,3.5,84,5,"I stopped by several times and picked up takeout beer but they fully opened up on July 9th. Congratulations!

The beer is awesome and the staff is very..."
4446,Micro,The Booth Brewing Co,CA,40.802277000000004,-124.17428100000001,UlWVQatj76vAG4yYRIsE5A,3.5,972,4,Really good food. Large portions. Huge basket of Calamari. It was so good.  We always pick up a sweatshirt or two
4447,Micro,The Brew Brothers Eldorado Hotel and Casino,NV,39.528634999999994,-119.81425,J6ZSgoKCLBDMMzuhM-aYGg,3.0,862,3,Booked a room at Eldorado Casino through expedia. Mask are required in the casino and must be covering your nose and mouth while in public but may be off...
4448,Micro,The Brewer's Cabinet,NV,39.520571999999994,-119.817282,gndi4-wzu66Mtp4E0zHt7g,4.0,605,5,"Brewers Cabinet is a MUST VISIT. We are never disappointed and this fall 2020 cocktail menu is incredible! The bartender was super fast, friendly and..."
4449,,The Brewers of Nye Hill Farm,NH,42.932505,-72.235466,Na,Na,Na,Na,Na
4450,Micro,The Brewing Projekt,WI,44.817809999999994,-91.50899,W9eofUhman7Z-6-G9Bb1tg,4.5,32,5,We loved The Brewing Projekt when we stopped into town. You can tell they are taking Covid precautions very seriously. They escort you to a table and ask...
4451,Micro,The Bronx Brewery,NY,40.801860999999995,-73.910641,OYmNzOzsAozGaA-L2rMvmQ,4.0,147,5,"covid review:

if you put the address in your GPS, make sure to go around the block. the entrance to the beer garden is there. free street parking. 

there..."
4452,Micro,The Corkscrew Winery and Brewery,FL,29.186010999999997,-82.1374,1JUP37dKvdHF32qxNOS56g,4.0,13,5,Absolutely LOVE this place! My husband and I are always looking for new spots to check out in town and have admittedly walked past The Corkscrew so many...
4453,Micro,The Dahlonega Brewery,GA,34.566548,-83.967869,GGw_QHGhWCrmMPID8xeiCQ,5.0,26,5,"We visited the Etowah Meadery tasting room in downtown Dahlonega on a recent trip. We've done beer, wine, and margarita flights, but never a mead flight-..."
4454,Micro,The Dreamchaser's Brewery,NC,34.925369,-80.743034,KWEMOJotuluTK0y8ua3pjg,4.0,52,5,"My husband and I wanted a pandemic treat. I got a cider which wasn't too sweet, and my husband got a beer which he thoroughly enjoyed. We were able to sit..."
4455,Micro,The Dudes' Brewing Company,CA,33.841685999999996,-118.311502,PvYuqkCIZIGANu062CNSqQ,4.0,351,5,My go-to brewery! My friends and I love Dudes' and it's one of my favorite hangs. The beer selection is plentiful and the staff here is so friendly. It's in...
4456,Micro,The FarmHouse Brewery LLC,NY,42.224742,-76.185513,Na,Na,Na,Na,Na
4457,Micro,The Grumpy Troll Brewpub,WI,43.008112,-89.73813100000001,lTKfkTHuD0qRt6OaocI-pg,4.0,292,4,Local restaurant near the House on the Rock.  Went with the family of 5 for lunch.  Social distancing and facemasks for the servers are the nor.  Wife...
4458,Micro,The Hidden Mother Brewery,WA,47.669354,-117.41791699999999,F9OmjE5J3EaSc6wYha7waQ,5.0,7,5,Stopped by on a whim after seeing their rad design on a street sign. And can I say I was so glad that I did. The owner cared about his drinks and the...
4459,,The Hold By Revelry Brewing,SC,32.808271999999995,-79.945037,bexvyz-kMfi5lS9Qmt5eKw,4.5,12,5,"Super cool spot, a must stop for beer lovers. This is a 2 minute walk behind revelry brewing, small space which is comfy and chill. They brew unique..."
4460,Micro,The Manhattan Project Beer Company,TX,32.771795000000004,-96.828591,uQTAR_HgJ_exMObzFB4-6g,4.5,42,5,"Really cute outdoor brewery! There are multiple seatings: outdoors, by the bar, indoors (work space), indoors by the brewing station 

I got a flight so I..."
4461,,The Mitten Brewing Company Production Facility,MI,42.984452000000005,-85.682227,Na,Na,Na,Na,Na
4462,Micro,The Oozlefinch Craft Brewery,VA,37.008872,-76.30471800000001,eKI0TkQusdGFiBJ9iT4uuA,4.5,111,5,"Came here on a rainy day. the whole pandemic thing really made us curious to see how they would fare with the changes.

1. They have limited outdoor seating..."
4463,Micro,The Outlaw Brewing Company,NH,42.74792,-72.35598900000001,n9kbGa3-izOAu3pXPl63HQ,5.0,5,5,A phenomenal selection of unique beers and not over priced.... Also a great outdoor space with wonderfully personable staff and owners. Would highly...
4464,Micro,The Rare Barrel,CA,37.857869,-122.2915,RvYP2O--XYyGi-CRLnbX2A,4.5,341,5,"Did not expect to have one of the best meals we've had at this brewery!

Jimmy Nardellos (5 stars): with njuda vinaigrette. This was so innovative and..."
4465,Micro,The Referend Bier Blendery,NJ,40.299246999999994,-74.797097,W7xEFlsZUGLLlNn2O_hhCg,4.5,26,5,"The Referend Bier Blendery does not, as some reviewers have stated, offer sours.  Ask anyone of the staff to explain the difference.

The Referend Bier..."
4466,Micro,The Sour Note Brewing,IN,41.617459000000004,-87.518128,1eBzyv2e71BopRFuYsdlkg,4.5,6,2,"Really disappointed in sour note. Firstly, the exterior of the brewery was a little distressed and the parking lot was confusing, not seeing any lines or..."
4467,Micro,The St George Brewing Company,VA,37.099925,-76.39442199999999,gUKfKzaOHcHPxJLSrc-8Pw,4.5,38,5,"What an awesome brewery!!! We stopped in on a Wednesday afternoon (Veteran's Day specifically, and they were offering 20% off for all military) and had to..."
4468,Micro,The Tiffin Brewery AH Brewing LLC,OH,41.122596,-83.187506,Na,Na,Na,Na,Na
4469,Micro,The Virginia Beer Company,VA,37.272159,-76.681296,rrDJtsAQoFyuuSfMZy500w,4.5,77,5,This wasn't my first time visiting-this is a regular stop whenever we are on the peninsula. It's one of our favorite breweries in Hampton Roads with a great...
4470,Micro,The Woodburn Brewery,OH,39.12897,-84.47681899999999,p9JJg1QUZet7s-GDje-YHQ,4.5,143,5,"SOUR BEER IS THE ONLY BEER I LIKE, MKAY? Ok, now I got that out of the way... When I visit a brewery in the Queen City, I expect certain things. 
I expect:..."
4471,Micro,The Woodlands At SweetWater,GA,33.808858,-84.380078,7wFCbq-wL5uH_v0RlidA4g,5.0,1,5,With all the great breweries in Atlanta people forget that Sweetwater is the OG (aside from Red brick ) and it's sometimes chastised as not  having high...
4472,Micro,Thin Man Brewery,NY,42.910297,-78.87737,c4U3P9emSuxmItVzBYJRcw,3.5,251,5,We stopped in for a flight today. You can have as few or as many as 8. We were sharing so we had 8. There was a great variety and one cider to choose from....
4473,Micro,Third Space Brewing,WI,43.034566999999996,-87.932517,ocDgFLdUgqkT6dWPpT5ShQ,4.5,85,5,"Great local place and super clean , doing a great job here for social distancing.

Love the India Pale Ale"
4474,Micro,Thirsty Dog Brewing Company,OH,41.067195,-81.517341,Na,Na,Na,Na,Na
4475,,Thirsty Monk Pub Brewery,CO,39.74303,-104.96814499999999,Na,Na,Na,Na,Na
4476,Micro,Thirsty Planet Brewing Co,TX,30.175568,-97.783287,Na,Na,Na,Na,Na
4477,,Thirsty Skull Brewing,NC,35.668741,-79.333135,Na,Na,Na,Na,Na
4478,Micro,Thomas Creek Brewery,SC,34.796626,-82.423458,paHRbXtlhEXwCFDJucEs2Q,4.5,55,5,My husband and I dropped by the tap room at Thomas Creek for a relaxing evening. We were very pleasantly surprised by their selection and quality of brews....
4479,Micro,Thomas Hooker Brewing At Colt,CT,41.755407,-72.663662,BhT1PUvvKOsdFIenZfH7Mw,4.0,55,Na,Na
4480,Micro,Thomas Hooker Brewing Co LLC,CT,41.809271,-72.710652,Na,Na,Na,Na,Na
4481,,Thorn Brewing Co,CA,32.702178,-117.147801,Na,Na,Na,Na,Na
4482,Micro,Thornapple Brewing Company,MI,42.912348,-85.5127,s93g3ficu0W3naYOnGCWLw,4.5,113,5,"The best place to eat and drink in Cascade!! 

Delicious and unique pizza with their own spent grains in the dough- perfect crispiness and tons of flavor...."
4483,Micro,Three 3's Brewing Company,NJ,39.638558,-74.811482,h_m1dY4CHoq0c8ytl1J_SQ,4.5,20,5,"Great beers, and friendly people, what more could you want? We made a day of it hiking in bass river park and then heading to the brewery for some..."
4484,Micro,Three Bull Brewing Co,WA,47.934288,-122.091949,Na,Na,Na,Na,Na
4485,Micro,Three Creeks Brewing Co,OR,44.285218,-121.534986,Na,Na,Na,Na,Na
4486,Micro,Three Creeks Production,OR,44.296893,-121.547941,Na,Na,Na,Na,Na
4487,Micro,Three Heads Brewing,NY,43.156378000000004,-77.579472,919KsfjK7mTeGPE2CUPZtw,4.5,82,5,A lovely place to visit on University Avenue. We were greeted upon arrival by friendly staff and were prompted to order inside at the bar and sit outside....
